{
"type": "FeatureCollection",
"name": "substations",
"crs": { "type": "name", "properties": { "name": "urn:ogc:def:crs:OGC:1.3:CRS84" } },
"features": [
{ "type": "Feature", "properties": { "name": "", "operator": "", "voltage_max_kv": 400, "n_parts": 1, "v_bucket": "380" }, "geometry": { "type": "Point", "coordinates": [ 12.5573627, 51.773946 ] } },
{ "type": "Feature", "properties": { "name": "", "operator": "EnR", "voltage_max_kv": 200, "n_parts": 1, "v_bucket": "110" }, "geometry": { "type": "Point", "coordinates": [ 11.3289547, 50.6919758 ] } },
{ "type": "Feature", "properties": { "name": "", "operator": "Stadtwerke_Hannover_AG", "voltage_max_kv": 110, "n_parts": 1, "v_bucket": "110" }, "geometry": { "type": "Point", "coordinates": [ 9.7815465, 52.4032754 ] } },
{ "type": "Feature", "properties": { "name": "Station Sankt Augustin", "operator": "RWE", "voltage_max_kv": 400, "n_parts": 21, "v_bucket": "380" }, "geometry": { "type": "Point", "coordinates": [ 7.201156085532824, 50.774365570162679 ] } },
{ "type": "Feature", "properties": { "name": "", "operator": "RWE", "voltage_max_kv": 400, "n_parts": 8, "v_bucket": "380" }, "geometry": { "type": "Point", "coordinates": [ 7.19313062364286, 50.782352057174954 ] } },
{ "type": "Feature", "properties": { "name": "", "operator": "", "voltage_max_kv": 400, "n_parts": 2, "v_bucket": "380" }, "geometry": { "type": "Point", "coordinates": [ 7.220207347622907, 50.749683987460529 ] } },
{ "type": "Feature", "properties": { "name": "Umspannstation Klein Mutz", "operator": "EON_edis", "voltage_max_kv": 110, "n_parts": 2, "v_bucket": "110" }, "geometry": { "type": "Point", "coordinates": [ 13.259278375007364, 52.957178175052476 ] } },
{ "type": "Feature", "properties": { "name": "", "operator": "", "voltage_max_kv": 400, "n_parts": 1, "v_bucket": "380" }, "geometry": { "type": "Point", "coordinates": [ 7.1719274, 50.7914988 ] } },
{ "type": "Feature", "properties": { "name": "", "operator": "RWE", "voltage_max_kv": 400, "n_parts": 2, "v_bucket": "380" }, "geometry": { "type": "Point", "coordinates": [ 7.21219561912317, 50.762905063564546 ] } },
{ "type": "Feature", "properties": { "name": "", "operator": "", "voltage_max_kv": 400, "n_parts": 1, "v_bucket": "380" }, "geometry": { "type": "Point", "coordinates": [ 7.1861961, 50.7736254 ] } },
{ "type": "Feature", "properties": { "name": "", "operator": "", "voltage_max_kv": 400, "n_parts": 1, "v_bucket": "380" }, "geometry": { "type": "Point", "coordinates": [ 7.194272, 50.7606827 ] } },
{ "type": "Feature", "properties": { "name": "", "operator": "", "voltage_max_kv": 400, "n_parts": 1, "v_bucket": "380" }, "geometry": { "type": "Point", "coordinates": [ 7.1270896, 50.735496499999989 ] } },
{ "type": "Feature", "properties": { "name": "", "operator": "", "voltage_max_kv": 999, "n_parts": 1, "v_bucket": "380" }, "geometry": { "type": "Point", "coordinates": [ 9.2343269, 51.6100675 ] } },
{ "type": "Feature", "properties": { "name": "Umspannwerk Eilbek", "operator": "Hamburger Energienetze", "voltage_max_kv": 110, "n_parts": 1, "v_bucket": "110" }, "geometry": { "type": "Point", "coordinates": [ 10.0410649, 53.5661458 ] } },
{ "type": "Feature", "properties": { "name": "Umspannanlage Altstadt", "operator": "Stadtwerke Heidelberg Netze GmbH", "voltage_max_kv": 110, "n_parts": 1, "v_bucket": "110" }, "geometry": { "type": "Point", "coordinates": [ 8.7101092, 49.4132984 ] } },
{ "type": "Feature", "properties": { "name": "Trafostation", "operator": "Energieversorgung Offenbach", "voltage_max_kv": 400, "n_parts": 3, "v_bucket": "380" }, "geometry": { "type": "Point", "coordinates": [ 8.810847215277496, 50.058625255357768 ] } },
{ "type": "Feature", "properties": { "name": "Station Breyell", "operator": "Westnetz / RWE", "voltage_max_kv": 110, "n_parts": 2, "v_bucket": "110" }, "geometry": { "type": "Point", "coordinates": [ 6.254602885136539, 51.301110903933086 ] } },
{ "type": "Feature", "properties": { "name": "SW-Umspannwerk Helenenstraße", "operator": "SW Stadtwerke Wiesbaden Netz GmbH", "voltage_max_kv": 110, "n_parts": 1, "v_bucket": "110" }, "geometry": { "type": "Point", "coordinates": [ 8.2348078, 50.0816302 ] } },
{ "type": "Feature", "properties": { "name": "Trafostation", "operator": "Energieversorgung Offenbach", "voltage_max_kv": 400, "n_parts": 2, "v_bucket": "380" }, "geometry": { "type": "Point", "coordinates": [ 8.821287167349556, 50.083684077629478 ] } },
{ "type": "Feature", "properties": { "name": "Umspannwerk Mehringen", "operator": "Avacon Netz", "voltage_max_kv": 110, "n_parts": 1, "v_bucket": "110" }, "geometry": { "type": "Point", "coordinates": [ 9.1553203, 52.8314372 ] } },
{ "type": "Feature", "properties": { "name": "UW Olsberg-Antfeld", "operator": "", "voltage_max_kv": 110, "n_parts": 1, "v_bucket": "110" }, "geometry": { "type": "Point", "coordinates": [ 8.516596, 51.3967269 ] } },
{ "type": "Feature", "properties": { "name": "Umspannwerk Hochstetten-Dhaun", "operator": "", "voltage_max_kv": 110, "n_parts": 1, "v_bucket": "110" }, "geometry": { "type": "Point", "coordinates": [ 7.4877491, 49.8077567 ] } },
{ "type": "Feature", "properties": { "name": "Radlinghausen U1103", "operator": "Westfalen Weser", "voltage_max_kv": 110, "n_parts": 3, "v_bucket": "110" }, "geometry": { "type": "Point", "coordinates": [ 8.687502391046703, 51.434773396549232 ] } },
{ "type": "Feature", "properties": { "name": "Blumenthal", "operator": "Wesernetz", "voltage_max_kv": 110, "n_parts": 1, "v_bucket": "110" }, "geometry": { "type": "Point", "coordinates": [ 8.577867, 53.1818337 ] } },
{ "type": "Feature", "properties": { "name": "Umspannwerk Frankfurt Nord", "operator": "TenneT TSO GmbH;Avacon Netz", "voltage_max_kv": 220, "n_parts": 1, "v_bucket": "220" }, "geometry": { "type": "Point", "coordinates": [ 8.735200888934807, 50.159188600578247 ] } },
{ "type": "Feature", "properties": { "name": "Hauptumspannwerk Föhring", "operator": "", "voltage_max_kv": 380, "n_parts": 1, "v_bucket": "380" }, "geometry": { "type": "Point", "coordinates": [ 11.639339122460328, 48.178695995925793 ] } },
{ "type": "Feature", "properties": { "name": "", "operator": "RWE", "voltage_max_kv": 110, "n_parts": 1, "v_bucket": "110" }, "geometry": { "type": "Point", "coordinates": [ 8.800256872527225, 49.840500996161026 ] } },
{ "type": "Feature", "properties": { "name": "", "operator": "", "voltage_max_kv": 110, "n_parts": 1, "v_bucket": "110" }, "geometry": { "type": "Point", "coordinates": [ 7.878106837386313, 48.536676061010454 ] } },
{ "type": "Feature", "properties": { "name": "Hamburg/Süd", "operator": "50Hertz Transmission;Stromnetz Hamburg GmbH", "voltage_max_kv": 380, "n_parts": 1, "v_bucket": "380" }, "geometry": { "type": "Point", "coordinates": [ 9.908850377299856, 53.488048559605595 ] } },
{ "type": "Feature", "properties": { "name": "380 kV-Kabel Terminal Berlin", "operator": "50Hertz Transmission", "voltage_max_kv": 380, "n_parts": 1, "v_bucket": "380" }, "geometry": { "type": "Point", "coordinates": [ 13.281034890934075, 52.52654887400309 ] } },
{ "type": "Feature", "properties": { "name": "Umspannwerk Oberbachern", "operator": "TenneT TSO;Bayernwer Netz", "voltage_max_kv": 380, "n_parts": 1, "v_bucket": "380" }, "geometry": { "type": "Point", "coordinates": [ 11.370421577525157, 48.291493828449326 ] } },
{ "type": "Feature", "properties": { "name": "", "operator": "", "voltage_max_kv": 110, "n_parts": 2, "v_bucket": "110" }, "geometry": { "type": "Point", "coordinates": [ 6.09093165241843, 50.878430583726214 ] } },
{ "type": "Feature", "properties": { "name": "UW Niederwartha", "operator": "50Hertz ENSO", "voltage_max_kv": 110, "n_parts": 1, "v_bucket": "110" }, "geometry": { "type": "Point", "coordinates": [ 13.609075338817391, 51.093625319357628 ] } },
{ "type": "Feature", "properties": { "name": "Umspannwerk Rommelshausen", "operator": "", "voltage_max_kv": 110, "n_parts": 1, "v_bucket": "110" }, "geometry": { "type": "Point", "coordinates": [ 9.311252891956716, 48.801452611104217 ] } },
{ "type": "Feature", "properties": { "name": "Umspannwerk Bocklemünd", "operator": "", "voltage_max_kv": 220, "n_parts": 1, "v_bucket": "220" }, "geometry": { "type": "Point", "coordinates": [ 6.85169033709207, 50.984146946525527 ] } },
{ "type": "Feature", "properties": { "name": "Hamburg Nord", "operator": "50Hertz Transmission", "voltage_max_kv": 380, "n_parts": 1, "v_bucket": "380" }, "geometry": { "type": "Point", "coordinates": [ 9.984225240724916, 53.741386531570029 ] } },
{ "type": "Feature", "properties": { "name": "Station Opladen", "operator": "RWE", "voltage_max_kv": 380, "n_parts": 1, "v_bucket": "380" }, "geometry": { "type": "Point", "coordinates": [ 6.965548963395075, 51.070037381314208 ] } },
{ "type": "Feature", "properties": { "name": "Station Dhünnaue", "operator": "", "voltage_max_kv": 220, "n_parts": 1, "v_bucket": "220" }, "geometry": { "type": "Point", "coordinates": [ 6.975929826466834, 51.037602504308957 ] } },
{ "type": "Feature", "properties": { "name": "Station Knapsack", "operator": "Amprion", "voltage_max_kv": 380, "n_parts": 2, "v_bucket": "380" }, "geometry": { "type": "Point", "coordinates": [ 6.842440954223202, 50.861701632056352 ] } },
{ "type": "Feature", "properties": { "name": "Station Sechtem", "operator": "Amprion", "voltage_max_kv": 380, "n_parts": 1, "v_bucket": "380" }, "geometry": { "type": "Point", "coordinates": [ 6.97268670681087, 50.795665427059994 ] } },
{ "type": "Feature", "properties": { "name": "Station Siegburg", "operator": "RWE", "voltage_max_kv": 380, "n_parts": 3, "v_bucket": "380" }, "geometry": { "type": "Point", "coordinates": [ 7.192039725914499, 50.798918434204602 ] } },
{ "type": "Feature", "properties": { "name": "Station Alfter", "operator": "Westnetz", "voltage_max_kv": 110, "n_parts": 1, "v_bucket": "110" }, "geometry": { "type": "Point", "coordinates": [ 7.030462884038707, 50.751582170824662 ] } },
{ "type": "Feature", "properties": { "name": "Bonn-Nord (Westnetz GmbH)", "operator": "Westnetz", "voltage_max_kv": 110, "n_parts": 1, "v_bucket": "110" }, "geometry": { "type": "Point", "coordinates": [ 7.065219976733025, 50.752488496495367 ] } },
{ "type": "Feature", "properties": { "name": "Station Ranzel", "operator": "Westnetz", "voltage_max_kv": 110, "n_parts": 1, "v_bucket": "110" }, "geometry": { "type": "Point", "coordinates": [ 7.031591363792812, 50.820587161152432 ] } },
{ "type": "Feature", "properties": { "name": "Station Wesseling", "operator": "RWE", "voltage_max_kv": 110, "n_parts": 2, "v_bucket": "110" }, "geometry": { "type": "Point", "coordinates": [ 7.007574237405001, 50.811727887172523 ] } },
{ "type": "Feature", "properties": { "name": "Station Stockem", "operator": "Westnetz", "voltage_max_kv": 220, "n_parts": 2, "v_bucket": "220" }, "geometry": { "type": "Point", "coordinates": [ 7.095790910345972, 50.826910711836632 ] } },
{ "type": "Feature", "properties": { "name": "Umspannwerk Echterdingen Süd 110 kV", "operator": "Netze BW GmbH", "voltage_max_kv": 110, "n_parts": 1, "v_bucket": "110" }, "geometry": { "type": "Point", "coordinates": [ 9.168587148654053, 48.680570198200336 ] } },
{ "type": "Feature", "properties": { "name": "Station Bergmannsglück", "operator": "RWE", "voltage_max_kv": 220, "n_parts": 1, "v_bucket": "220" }, "geometry": { "type": "Point", "coordinates": [ 7.03761993834558, 51.598549645869213 ] } },
{ "type": "Feature", "properties": { "name": "Umspannwerk Mühlhausen", "operator": "Netze BW GmbH", "voltage_max_kv": 380, "n_parts": 1, "v_bucket": "380" }, "geometry": { "type": "Point", "coordinates": [ 9.215810066159964, 48.852273030084078 ] } },
{ "type": "Feature", "properties": { "name": "Station Kruckel", "operator": "Amprion;Westnetz", "voltage_max_kv": 380, "n_parts": 2, "v_bucket": "380" }, "geometry": { "type": "Point", "coordinates": [ 7.416934754791033, 51.457063963693251 ] } },
{ "type": "Feature", "properties": { "name": "Umspannwerk Marzahn", "operator": "50Hertz Transmission", "voltage_max_kv": 380, "n_parts": 4, "v_bucket": "380" }, "geometry": { "type": "Point", "coordinates": [ 13.527499066791753, 52.535995666475117 ] } },
{ "type": "Feature", "properties": { "name": "", "operator": "Stromnetz Hamburg", "voltage_max_kv": 110, "n_parts": 1, "v_bucket": "110" }, "geometry": { "type": "Point", "coordinates": [ 10.056366509885658, 53.674512568375128 ] } },
{ "type": "Feature", "properties": { "name": "Station Polsum", "operator": "Amprion", "voltage_max_kv": 380, "n_parts": 1, "v_bucket": "380" }, "geometry": { "type": "Point", "coordinates": [ 7.023219232672554, 51.625672180038961 ] } },
{ "type": "Feature", "properties": { "name": "Station Rotthausen", "operator": "RWE", "voltage_max_kv": 110, "n_parts": 1, "v_bucket": "110" }, "geometry": { "type": "Point", "coordinates": [ 7.084649914860579, 51.485174243766352 ] } },
{ "type": "Feature", "properties": { "name": "Umspannwerk Hohenbrunn", "operator": "E.ON Netz GmbH", "voltage_max_kv": 110, "n_parts": 1, "v_bucket": "110" }, "geometry": { "type": "Point", "coordinates": [ 11.681606412823164, 48.050352607258027 ] } },
{ "type": "Feature", "properties": { "name": "Station Hillerheide", "operator": "Westnetz", "voltage_max_kv": 110, "n_parts": 1, "v_bucket": "110" }, "geometry": { "type": "Point", "coordinates": [ 7.225310838997893, 51.599672651440301 ] } },
{ "type": "Feature", "properties": { "name": "Station Hüllen", "operator": "RWE", "voltage_max_kv": 380, "n_parts": 2, "v_bucket": "380" }, "geometry": { "type": "Point", "coordinates": [ 7.123277724993236, 51.525618494392134 ] } },
{ "type": "Feature", "properties": { "name": "UW Maarweg", "operator": "RheinEnergie AG", "voltage_max_kv": 110, "n_parts": 1, "v_bucket": "110" }, "geometry": { "type": "Point", "coordinates": [ 6.898729657094253, 50.946982122458813 ] } },
{ "type": "Feature", "properties": { "name": "Station Pfalzdorf", "operator": "Amprion;Westnetz", "voltage_max_kv": 220, "n_parts": 2, "v_bucket": "220" }, "geometry": { "type": "Point", "coordinates": [ 6.22194998109777, 51.694638350074577 ] } },
{ "type": "Feature", "properties": { "name": "Umspannanlage Brauweiler", "operator": "RWE", "voltage_max_kv": 380, "n_parts": 1, "v_bucket": "380" }, "geometry": { "type": "Point", "coordinates": [ 6.804550366730337, 50.966247773659717 ] } },
{ "type": "Feature", "properties": { "name": "Umspannwerk Herrenberg", "operator": "Netze BW GmbH", "voltage_max_kv": 110, "n_parts": 1, "v_bucket": "110" }, "geometry": { "type": "Point", "coordinates": [ 8.875002703407279, 48.602548578938482 ] } },
{ "type": "Feature", "properties": { "name": "Umspannwerk Sindelfingen-Mahdental", "operator": "", "voltage_max_kv": 110, "n_parts": 1, "v_bucket": "110" }, "geometry": { "type": "Point", "coordinates": [ 9.037376429087931, 48.704363625183014 ] } },
{ "type": "Feature", "properties": { "name": "", "operator": "Stadtwerke München", "voltage_max_kv": 110, "n_parts": 1, "v_bucket": "110" }, "geometry": { "type": "Point", "coordinates": [ 11.66558340245289, 48.097669415086457 ] } },
{ "type": "Feature", "properties": { "name": "Umspannwerk Röhrsdorf", "operator": "50Hertz Transmission", "voltage_max_kv": 380, "n_parts": 3, "v_bucket": "380" }, "geometry": { "type": "Point", "coordinates": [ 12.813072643170166, 50.857844584178949 ] } },
{ "type": "Feature", "properties": { "name": "Umspannwerk Meißen", "operator": "EON_WestfalenWeser", "voltage_max_kv": 220, "n_parts": 2, "v_bucket": "220" }, "geometry": { "type": "Point", "coordinates": [ 8.959002221475547, 52.278275283581081 ] } },
{ "type": "Feature", "properties": { "name": "Station Eller", "operator": "Amprion", "voltage_max_kv": 220, "n_parts": 2, "v_bucket": "220" }, "geometry": { "type": "Point", "coordinates": [ 6.847220282245585, 51.205500439128009 ] } },
{ "type": "Feature", "properties": { "name": "", "operator": "Energieversorgung Westfalen-Weser AG", "voltage_max_kv": 110, "n_parts": 1, "v_bucket": "110" }, "geometry": { "type": "Point", "coordinates": [ 8.737303728933602, 52.221020416921633 ] } },
{ "type": "Feature", "properties": { "name": "Heitmannshausen", "operator": "Avacon Netz", "voltage_max_kv": 110, "n_parts": 1, "v_bucket": "110" }, "geometry": { "type": "Point", "coordinates": [ 9.669130242735784, 53.473800078773714 ] } },
{ "type": "Feature", "properties": { "name": "Umspannwerk Taucha", "operator": "50Hertz Transmission GmbH;enviaM", "voltage_max_kv": 220, "n_parts": 1, "v_bucket": "220" }, "geometry": { "type": "Point", "coordinates": [ 12.469651181870841, 51.371671829547246 ] } },
{ "type": "Feature", "properties": { "name": "Umspannanlage Hugo", "operator": "Westnetz", "voltage_max_kv": 110, "n_parts": 1, "v_bucket": "110" }, "geometry": { "type": "Point", "coordinates": [ 7.041029979681857, 51.567235400559724 ] } },
{ "type": "Feature", "properties": { "name": "Station Reisholz", "operator": "", "voltage_max_kv": 220, "n_parts": 2, "v_bucket": "220" }, "geometry": { "type": "Point", "coordinates": [ 6.827847683578059, 51.162652248681297 ] } },
{ "type": "Feature", "properties": { "name": "Umspannanlage Niederhöchstadt", "operator": "Süwag", "voltage_max_kv": 110, "n_parts": 1, "v_bucket": "110" }, "geometry": { "type": "Point", "coordinates": [ 8.534203814239671, 50.16711877722485 ] } },
{ "type": "Feature", "properties": { "name": "Umspannwerk Dresden Süd", "operator": "ENSO Strom AG;DREWAG", "voltage_max_kv": 380, "n_parts": 2, "v_bucket": "380" }, "geometry": { "type": "Point", "coordinates": [ 13.841220223255247, 50.990220290911807 ] } },
{ "type": "Feature", "properties": { "name": "Umspannwerk Oberems", "operator": "", "voltage_max_kv": 110, "n_parts": 1, "v_bucket": "110" }, "geometry": { "type": "Point", "coordinates": [ 8.396542571934088, 50.237837730964195 ] } },
{ "type": "Feature", "properties": { "name": "Umspannwerk Urberach", "operator": "Amprion", "voltage_max_kv": 380, "n_parts": 1, "v_bucket": "380" }, "geometry": { "type": "Point", "coordinates": [ 8.772242405046457, 49.974552665592839 ] } },
{ "type": "Feature", "properties": { "name": "Station Hau", "operator": "Westnetz", "voltage_max_kv": 110, "n_parts": 1, "v_bucket": "110" }, "geometry": { "type": "Point", "coordinates": [ 6.130983691015261, 51.766878192313598 ] } },
{ "type": "Feature", "properties": { "name": "", "operator": "", "voltage_max_kv": 110, "n_parts": 1, "v_bucket": "110" }, "geometry": { "type": "Point", "coordinates": [ 6.150584694443813, 50.879062275687311 ] } },
{ "type": "Feature", "properties": { "name": "Station Utfort", "operator": "Amprion", "voltage_max_kv": 380, "n_parts": 1, "v_bucket": "380" }, "geometry": { "type": "Point", "coordinates": [ 6.617201949701343, 51.475838153257904 ] } },
{ "type": "Feature", "properties": { "name": "Coburg-Neuses", "operator": "", "voltage_max_kv": 110, "n_parts": 1, "v_bucket": "110" }, "geometry": { "type": "Point", "coordinates": [ 10.95758574115442, 50.280551497526616 ] } },
{ "type": "Feature", "properties": { "name": "Umspannwerk Weilimdorf", "operator": "Netze BW", "voltage_max_kv": 110, "n_parts": 1, "v_bucket": "110" }, "geometry": { "type": "Point", "coordinates": [ 9.096859214779411, 48.827864542247355 ] } },
{ "type": "Feature", "properties": { "name": "Mittelnkirchen", "operator": "Avacon Netz", "voltage_max_kv": 110, "n_parts": 1, "v_bucket": "110" }, "geometry": { "type": "Point", "coordinates": [ 9.634697019986612, 53.53897357522635 ] } },
{ "type": "Feature", "properties": { "name": "", "operator": "", "voltage_max_kv": 110, "n_parts": 1, "v_bucket": "110" }, "geometry": { "type": "Point", "coordinates": [ 6.653017743425439, 51.516479290795829 ] } },
{ "type": "Feature", "properties": { "name": "Umspannwerk Kuhwerder", "operator": "Hamburger Energienetze", "voltage_max_kv": 110, "n_parts": 2, "v_bucket": "110" }, "geometry": { "type": "Point", "coordinates": [ 9.969848367058862, 53.53206274371891 ] } },
{ "type": "Feature", "properties": { "name": "Hamburg/Ost", "operator": "50Hertz Transmission", "voltage_max_kv": 380, "n_parts": 1, "v_bucket": "380" }, "geometry": { "type": "Point", "coordinates": [ 10.159650678896922, 53.555364230186157 ] } },
{ "type": "Feature", "properties": { "name": "Umspannwerk Wörrstadt", "operator": "", "voltage_max_kv": 110, "n_parts": 1, "v_bucket": "110" }, "geometry": { "type": "Point", "coordinates": [ 8.110721894191496, 49.846883897756719 ] } },
{ "type": "Feature", "properties": { "name": "Neu Wulmstorf", "operator": "Avacon Netz GmbH", "voltage_max_kv": 110, "n_parts": 1, "v_bucket": "110" }, "geometry": { "type": "Point", "coordinates": [ 9.798555863115084, 53.451998654795148 ] } },
{ "type": "Feature", "properties": { "name": "Umspannwerk Seevetal-Hittfeld", "operator": "Avacon", "voltage_max_kv": 110, "n_parts": 1, "v_bucket": "110" }, "geometry": { "type": "Point", "coordinates": [ 9.981734366834445, 53.39032342771516 ] } },
{ "type": "Feature", "properties": { "name": "Umspannwerk Marxheim", "operator": "Süwag Energie", "voltage_max_kv": 110, "n_parts": 1, "v_bucket": "110" }, "geometry": { "type": "Point", "coordinates": [ 8.435133270497472, 50.059035831925947 ] } },
{ "type": "Feature", "properties": { "name": "Farbwerke Höchst Süd (FWH-S)", "operator": "Amprion", "voltage_max_kv": 380, "n_parts": 2, "v_bucket": "380" }, "geometry": { "type": "Point", "coordinates": [ 8.533294924367551, 50.077910702744376 ] } },
{ "type": "Feature", "properties": { "name": "Anderten-Misburg", "operator": "enercity Netz", "voltage_max_kv": 110, "n_parts": 2, "v_bucket": "110" }, "geometry": { "type": "Point", "coordinates": [ 9.867173767023241, 52.373114913137002 ] } },
{ "type": "Feature", "properties": { "name": "Hannover/West", "operator": "TenneT;Avacon Netz GmbH", "voltage_max_kv": 220, "n_parts": 1, "v_bucket": "220" }, "geometry": { "type": "Point", "coordinates": [ 9.52257611559992, 52.360408846694057 ] } },
{ "type": "Feature", "properties": { "name": "Umspannwerk Rehhof", "operator": "E.ON Netz", "voltage_max_kv": 110, "n_parts": 1, "v_bucket": "110" }, "geometry": { "type": "Point", "coordinates": [ 11.147667381244805, 49.459599631388024 ] } },
{ "type": "Feature", "properties": { "name": "Schwicheldt", "operator": "Avacon Netz", "voltage_max_kv": 110, "n_parts": 1, "v_bucket": "110" }, "geometry": { "type": "Point", "coordinates": [ 10.108422001308297, 52.322301088981014 ] } },
{ "type": "Feature", "properties": { "name": "Umspannanlage Mörfelden", "operator": "e-netz Südhessen", "voltage_max_kv": 110, "n_parts": 1, "v_bucket": "110" }, "geometry": { "type": "Point", "coordinates": [ 8.590762565133438, 49.970816958979768 ] } },
{ "type": "Feature", "properties": { "name": "Umspannwerk Maade", "operator": "TenneT", "voltage_max_kv": 220, "n_parts": 1, "v_bucket": "220" }, "geometry": { "type": "Point", "coordinates": [ 8.122640296914771, 53.560517351914044 ] } },
{ "type": "Feature", "properties": { "name": "Bentstreek", "operator": "Avacon Netz", "voltage_max_kv": 110, "n_parts": 1, "v_bucket": "110" }, "geometry": { "type": "Point", "coordinates": [ 7.847165668148394, 53.388417009747229 ] } },
{ "type": "Feature", "properties": { "name": "", "operator": "", "voltage_max_kv": 110, "n_parts": 1, "v_bucket": "110" }, "geometry": { "type": "Point", "coordinates": [ 6.189376925400546, 50.88007752075174 ] } },
{ "type": "Feature", "properties": { "name": "Roffhausen", "operator": "Avacon Netz GmbH", "voltage_max_kv": 110, "n_parts": 1, "v_bucket": "110" }, "geometry": { "type": "Point", "coordinates": [ 8.001480963568492, 53.517964117924564 ] } },
{ "type": "Feature", "properties": { "name": "Umspannwerk Lahe", "operator": "enercity Netz", "voltage_max_kv": 220, "n_parts": 2, "v_bucket": "220" }, "geometry": { "type": "Point", "coordinates": [ 9.816580843832371, 52.427515549801512 ] } },
{ "type": "Feature", "properties": { "name": "Dörnigheim 220 kV", "operator": "TenneT TSO GmbH", "voltage_max_kv": 220, "n_parts": 1, "v_bucket": "220" }, "geometry": { "type": "Point", "coordinates": [ 8.873006666910745, 50.130854587519451 ] } },
{ "type": "Feature", "properties": { "name": "Umspannwerk Reußen", "operator": "MITNETZ STROM", "voltage_max_kv": 110, "n_parts": 1, "v_bucket": "110" }, "geometry": { "type": "Point", "coordinates": [ 12.116654154382333, 51.502013466792505 ] } },
{ "type": "Feature", "properties": { "name": "Umspannwerk Algermissen", "operator": "TenneT;Avacon Netz GmbH", "voltage_max_kv": 380, "n_parts": 1, "v_bucket": "380" }, "geometry": { "type": "Point", "coordinates": [ 9.917160977694621, 52.278190773512883 ] } },
{ "type": "Feature", "properties": { "name": "Hauptumspannwerk Menzing", "operator": "Stadtwerke München", "voltage_max_kv": 380, "n_parts": 1, "v_bucket": "380" }, "geometry": { "type": "Point", "coordinates": [ 11.440779450721475, 48.171805391017173 ] } },
{ "type": "Feature", "properties": { "name": "Rethen", "operator": "Avacon Netz", "voltage_max_kv": 110, "n_parts": 1, "v_bucket": "110" }, "geometry": { "type": "Point", "coordinates": [ 9.81336049559299, 52.291380244515466 ] } },
{ "type": "Feature", "properties": { "name": "Banter Weg", "operator": "Avacon Netz GmbH", "voltage_max_kv": 110, "n_parts": 1, "v_bucket": "110" }, "geometry": { "type": "Point", "coordinates": [ 8.08801734003803, 53.520734211638413 ] } },
{ "type": "Feature", "properties": { "name": "Umspannwerk Karben", "operator": "TenneT TSO", "voltage_max_kv": 380, "n_parts": 2, "v_bucket": "380" }, "geometry": { "type": "Point", "coordinates": [ 8.809065736016434, 50.203527275850924 ] } },
{ "type": "Feature", "properties": { "name": "Umspannwerk Wolfsburg", "operator": "VW Kraftwerk GmbH", "voltage_max_kv": 110, "n_parts": 1, "v_bucket": "110" }, "geometry": { "type": "Point", "coordinates": [ 10.757797967347319, 52.435254020857776 ] } },
{ "type": "Feature", "properties": { "name": "Umspannwerk Leipzig Nord", "operator": "MITNETZ Strom", "voltage_max_kv": 110, "n_parts": 1, "v_bucket": "110" }, "geometry": { "type": "Point", "coordinates": [ 12.345725221761857, 51.376562387226315 ] } },
{ "type": "Feature", "properties": { "name": "Hanau Nord", "operator": "Avacon Netz", "voltage_max_kv": 110, "n_parts": 1, "v_bucket": "110" }, "geometry": { "type": "Point", "coordinates": [ 8.930419183905819, 50.152537389311618 ] } },
{ "type": "Feature", "properties": { "name": "Umspannwerk Neufinsing", "operator": "TenneT TSO GmbH, E.ON Netz GmbH", "voltage_max_kv": 220, "n_parts": 1, "v_bucket": "220" }, "geometry": { "type": "Point", "coordinates": [ 11.813244371745904, 48.221263888964678 ] } },
{ "type": "Feature", "properties": { "name": "Umspannwerk Friedrichshain", "operator": "50Hertz Transmission GmbH;Stromnetz Berlin GmbH", "voltage_max_kv": 380, "n_parts": 2, "v_bucket": "380" }, "geometry": { "type": "Point", "coordinates": [ 13.462945130594585, 52.52170309989657 ] } },
{ "type": "Feature", "properties": { "name": "Umspannwerk Herford/Füllenbruch", "operator": "EON_Westfalen_Weser", "voltage_max_kv": 110, "n_parts": 1, "v_bucket": "110" }, "geometry": { "type": "Point", "coordinates": [ 8.656400973380313, 52.130786877932671 ] } },
{ "type": "Feature", "properties": { "name": "Eickum", "operator": "TenneT TSO GmbH", "voltage_max_kv": 380, "n_parts": 2, "v_bucket": "380" }, "geometry": { "type": "Point", "coordinates": [ 8.571094470147935, 52.105091311065586 ] } },
{ "type": "Feature", "properties": { "name": "Umspannwerk Oberbrunn", "operator": "TenneT TSO;Bayernwerk Netz", "voltage_max_kv": 220, "n_parts": 1, "v_bucket": "220" }, "geometry": { "type": "Point", "coordinates": [ 11.293907327048284, 48.051842889289226 ] } },
{ "type": "Feature", "properties": { "name": "", "operator": "", "voltage_max_kv": 110, "n_parts": 1, "v_bucket": "110" }, "geometry": { "type": "Point", "coordinates": [ 6.375905646371898, 51.17434578950936 ] } },
{ "type": "Feature", "properties": { "name": "Umspannwerk", "operator": "", "voltage_max_kv": 110, "n_parts": 1, "v_bucket": "110" }, "geometry": { "type": "Point", "coordinates": [ 6.457736667353416, 51.212237513715365 ] } },
{ "type": "Feature", "properties": { "name": "Umspannwerk Hattorf", "operator": "EON_Netz", "voltage_max_kv": 380, "n_parts": 2, "v_bucket": "380" }, "geometry": { "type": "Point", "coordinates": [ 10.760959927168965, 52.367835915653011 ] } },
{ "type": "Feature", "properties": { "name": "Peine/Ost", "operator": "Avacon Netz", "voltage_max_kv": 110, "n_parts": 1, "v_bucket": "110" }, "geometry": { "type": "Point", "coordinates": [ 10.271141279926299, 52.316679146749834 ] } },
{ "type": "Feature", "properties": { "name": "Wahle 380 kV", "operator": "TenneT TSO GmbH", "voltage_max_kv": 380, "n_parts": 2, "v_bucket": "380" }, "geometry": { "type": "Point", "coordinates": [ 10.36684147965396, 52.284647463634983 ] } },
{ "type": "Feature", "properties": { "name": "Bechterdissen", "operator": "TenneT TSO GmbH", "voltage_max_kv": 380, "n_parts": 3, "v_bucket": "380" }, "geometry": { "type": "Point", "coordinates": [ 8.659670186910548, 51.999965659690638 ] } },
{ "type": "Feature", "properties": { "name": "Umspannanlage Frimmersdorf I", "operator": "RWE", "voltage_max_kv": 220, "n_parts": 3, "v_bucket": "220" }, "geometry": { "type": "Point", "coordinates": [ 6.569598795721507, 51.048341753798873 ] } },
{ "type": "Feature", "properties": { "name": "Umspannanlage Verlautenheide", "operator": "Amprion", "voltage_max_kv": 380, "n_parts": 2, "v_bucket": "380" }, "geometry": { "type": "Point", "coordinates": [ 6.166563358672618, 50.804211501656198 ] } },
{ "type": "Feature", "properties": { "name": "Station Wevelinghoven", "operator": "RWE", "voltage_max_kv": 110, "n_parts": 1, "v_bucket": "110" }, "geometry": { "type": "Point", "coordinates": [ 6.609109465179024, 51.095459722437013 ] } },
{ "type": "Feature", "properties": { "name": "", "operator": "", "voltage_max_kv": 110, "n_parts": 1, "v_bucket": "110" }, "geometry": { "type": "Point", "coordinates": [ 10.782544219986145, 52.500151747075414 ] } },
{ "type": "Feature", "properties": { "name": "Umspannwerk Klein Ilsede", "operator": "TenneT TSO GmbH;Avacon Netz GmbH", "voltage_max_kv": 380, "n_parts": 2, "v_bucket": "380" }, "geometry": { "type": "Point", "coordinates": [ 10.235831956053742, 52.293529621336802 ] } },
{ "type": "Feature", "properties": { "name": "Umspannwerk Braunschweig Nord", "operator": "EON_Netz", "voltage_max_kv": 220, "n_parts": 1, "v_bucket": "220" }, "geometry": { "type": "Point", "coordinates": [ 10.505499181720541, 52.301837918838274 ] } },
{ "type": "Feature", "properties": { "name": "Station Nordlicht", "operator": "RWE; ELE", "voltage_max_kv": 380, "n_parts": 1, "v_bucket": "380" }, "geometry": { "type": "Point", "coordinates": [ 6.906604097940858, 51.565235803175646 ] } },
{ "type": "Feature", "properties": { "name": "Station Goch", "operator": "RWE", "voltage_max_kv": 110, "n_parts": 1, "v_bucket": "110" }, "geometry": { "type": "Point", "coordinates": [ 6.155977261976916, 51.695236636648595 ] } },
{ "type": "Feature", "properties": { "name": "", "operator": "Stadtwerke Düsseldorf", "voltage_max_kv": 110, "n_parts": 1, "v_bucket": "110" }, "geometry": { "type": "Point", "coordinates": [ 6.81333494416624, 51.224605106437473 ] } },
{ "type": "Feature", "properties": { "name": "Grohnde", "operator": "TenneT", "voltage_max_kv": 380, "n_parts": 2, "v_bucket": "380" }, "geometry": { "type": "Point", "coordinates": [ 9.389600908623251, 52.026188070375149 ] } },
{ "type": "Feature", "properties": { "name": "Station Wambel", "operator": "Amprion", "voltage_max_kv": 220, "n_parts": 1, "v_bucket": "220" }, "geometry": { "type": "Point", "coordinates": [ 7.522334579501339, 51.532171547955286 ] } },
{ "type": "Feature", "properties": { "name": "Station Elmenhorst", "operator": "Amprion", "voltage_max_kv": 220, "n_parts": 1, "v_bucket": "220" }, "geometry": { "type": "Point", "coordinates": [ 7.445069438250825, 51.618500228786367 ] } },
{ "type": "Feature", "properties": { "name": "", "operator": "", "voltage_max_kv": 110, "n_parts": 1, "v_bucket": "110" }, "geometry": { "type": "Point", "coordinates": [ 8.420683244857178, 50.021184912609378 ] } },
{ "type": "Feature", "properties": { "name": "", "operator": "", "voltage_max_kv": 110, "n_parts": 1, "v_bucket": "110" }, "geometry": { "type": "Point", "coordinates": [ 8.257832507694681, 50.047188148990529 ] } },
{ "type": "Feature", "properties": { "name": "Station Ossenberg", "operator": "Amprion", "voltage_max_kv": 220, "n_parts": 2, "v_bucket": "220" }, "geometry": { "type": "Point", "coordinates": [ 6.575533833367578, 51.553841791158604 ] } },
{ "type": "Feature", "properties": { "name": "Spellen", "operator": "Amprion", "voltage_max_kv": 220, "n_parts": 1, "v_bucket": "220" }, "geometry": { "type": "Point", "coordinates": [ 6.614278589731209, 51.618678826508145 ] } },
{ "type": "Feature", "properties": { "name": "Station Niederrhein", "operator": "RWE", "voltage_max_kv": 380, "n_parts": 1, "v_bucket": "380" }, "geometry": { "type": "Point", "coordinates": [ 6.680683835854015, 51.646377497781316 ] } },
{ "type": "Feature", "properties": { "name": "Umspannwerk Langenzenn", "operator": "N-ERGIE", "voltage_max_kv": 110, "n_parts": 1, "v_bucket": "110" }, "geometry": { "type": "Point", "coordinates": [ 10.814502210833481, 49.502948178743992 ] } },
{ "type": "Feature", "properties": { "name": "Oldenburg Osternburg", "operator": "Avacon Netz", "voltage_max_kv": 110, "n_parts": 1, "v_bucket": "110" }, "geometry": { "type": "Point", "coordinates": [ 8.222974114516147, 53.122618320457107 ] } },
{ "type": "Feature", "properties": { "name": "Station Walsum", "operator": "Amprion", "voltage_max_kv": 380, "n_parts": 3, "v_bucket": "380" }, "geometry": { "type": "Point", "coordinates": [ 6.714137407570705, 51.526739846802393 ] } },
{ "type": "Feature", "properties": { "name": "Station Möllen", "operator": "", "voltage_max_kv": 220, "n_parts": 1, "v_bucket": "220" }, "geometry": { "type": "Point", "coordinates": [ 6.683107024583806, 51.575645526494434 ] } },
{ "type": "Feature", "properties": { "name": "Station Emmelsum", "operator": "RWE", "voltage_max_kv": 110, "n_parts": 1, "v_bucket": "110" }, "geometry": { "type": "Point", "coordinates": [ 6.629038956889548, 51.625805866744649 ] } },
{ "type": "Feature", "properties": { "name": "Station Kirchhellen", "operator": "Westnetz", "voltage_max_kv": 110, "n_parts": 1, "v_bucket": "110" }, "geometry": { "type": "Point", "coordinates": [ 6.93536086680446, 51.601354531775428 ] } },
{ "type": "Feature", "properties": { "name": "", "operator": "", "voltage_max_kv": 110, "n_parts": 1, "v_bucket": "110" }, "geometry": { "type": "Point", "coordinates": [ 6.70767463853748, 51.24559858491304 ] } },
{ "type": "Feature", "properties": { "name": "110kV Umspannwerk Ehingen", "operator": "HKM", "voltage_max_kv": 110, "n_parts": 1, "v_bucket": "110" }, "geometry": { "type": "Point", "coordinates": [ 6.707907508197246, 51.361350812437266 ] } },
{ "type": "Feature", "properties": { "name": "Uerdingen", "operator": "RWE", "voltage_max_kv": 380, "n_parts": 3, "v_bucket": "380" }, "geometry": { "type": "Point", "coordinates": [ 6.660503846410464, 51.381166473641521 ] } },
{ "type": "Feature", "properties": { "name": "Ganderkesee", "operator": "TenneT;EON_Netz;EWE", "voltage_max_kv": 380, "n_parts": 1, "v_bucket": "380" }, "geometry": { "type": "Point", "coordinates": [ 8.565213735084702, 53.032107841037281 ] } },
{ "type": "Feature", "properties": { "name": "Delmenhorst Nord", "operator": "Avacon Netz GmbH", "voltage_max_kv": 110, "n_parts": 1, "v_bucket": "110" }, "geometry": { "type": "Point", "coordinates": [ 8.651724046837888, 53.071969374221148 ] } },
{ "type": "Feature", "properties": { "name": "Umspannwerk Dollern", "operator": "TenneT;Avacon Netz GmbH", "voltage_max_kv": 380, "n_parts": 2, "v_bucket": "380" }, "geometry": { "type": "Point", "coordinates": [ 9.502453354793266, 53.543278281988719 ] } },
{ "type": "Feature", "properties": { "name": "", "operator": "Stawag", "voltage_max_kv": 110, "n_parts": 2, "v_bucket": "110" }, "geometry": { "type": "Point", "coordinates": [ 6.111794508770826, 50.796933742599265 ] } },
{ "type": "Feature", "properties": { "name": "Station Moers", "operator": "RWE", "voltage_max_kv": 110, "n_parts": 1, "v_bucket": "110" }, "geometry": { "type": "Point", "coordinates": [ 6.621035583533068, 51.435171847249876 ] } },
{ "type": "Feature", "properties": { "name": "Station Lank", "operator": "RWE", "voltage_max_kv": 110, "n_parts": 1, "v_bucket": "110" }, "geometry": { "type": "Point", "coordinates": [ 6.660239165535681, 51.295626849914861 ] } },
{ "type": "Feature", "properties": { "name": "Hordorf", "operator": "Avacon Netz GmbH", "voltage_max_kv": 110, "n_parts": 1, "v_bucket": "110" }, "geometry": { "type": "Point", "coordinates": [ 10.664507909974137, 52.291538052303189 ] } },
{ "type": "Feature", "properties": { "name": "Schaltanlage Ovenstädt", "operator": "TenneT TSO GmbH", "voltage_max_kv": 380, "n_parts": 1, "v_bucket": "380" }, "geometry": { "type": "Point", "coordinates": [ 8.939692564778106, 52.403033283868268 ] } },
{ "type": "Feature", "properties": { "name": "Station Meitingen", "operator": "Net", "voltage_max_kv": 380, "n_parts": 2, "v_bucket": "380" }, "geometry": { "type": "Point", "coordinates": [ 10.86566450629936, 48.543139313756804 ] } },
{ "type": "Feature", "properties": { "name": "Umspannwerk Erding", "operator": "", "voltage_max_kv": 110, "n_parts": 1, "v_bucket": "110" }, "geometry": { "type": "Point", "coordinates": [ 11.909740997703132, 48.313061640706458 ] } },
{ "type": "Feature", "properties": { "name": "Garenfeld", "operator": "ENERVIE Vernetzt GmbH", "voltage_max_kv": 380, "n_parts": 4, "v_bucket": "380" }, "geometry": { "type": "Point", "coordinates": [ 7.505625593352768, 51.402747385826551 ] } },
{ "type": "Feature", "properties": { "name": "Umspannstation Bischofsheim", "operator": "RWE;Kraftwerke Mainz-Wiesbaden", "voltage_max_kv": 380, "n_parts": 2, "v_bucket": "380" }, "geometry": { "type": "Point", "coordinates": [ 8.387874973152886, 49.982319811024915 ] } },
{ "type": "Feature", "properties": { "name": "Umspannwerk Hof Schönau", "operator": "", "voltage_max_kv": 110, "n_parts": 1, "v_bucket": "110" }, "geometry": { "type": "Point", "coordinates": [ 8.403724541054597, 49.964474331807487 ] } },
{ "type": "Feature", "properties": { "name": "", "operator": "", "voltage_max_kv": 110, "n_parts": 1, "v_bucket": "110" }, "geometry": { "type": "Point", "coordinates": [ 8.38076902147867, 49.992784393888613 ] } },
{ "type": "Feature", "properties": { "name": "Umspannwerk Laubenheim", "operator": "", "voltage_max_kv": 110, "n_parts": 1, "v_bucket": "110" }, "geometry": { "type": "Point", "coordinates": [ 8.309528257764333, 49.951819355298539 ] } },
{ "type": "Feature", "properties": { "name": "", "operator": "", "voltage_max_kv": 110, "n_parts": 1, "v_bucket": "110" }, "geometry": { "type": "Point", "coordinates": [ 8.296437588680204, 50.032526614339595 ] } },
{ "type": "Feature", "properties": { "name": "Umspannwerk Biessenhofen", "operator": "LEW", "voltage_max_kv": 110, "n_parts": 1, "v_bucket": "110" }, "geometry": { "type": "Point", "coordinates": [ 10.634346499693429, 47.824246165270445 ] } },
{ "type": "Feature", "properties": { "name": "Wegberg", "operator": "Westnetz", "voltage_max_kv": 110, "n_parts": 1, "v_bucket": "110" }, "geometry": { "type": "Point", "coordinates": [ 6.282520596393682, 51.153634641247272 ] } },
{ "type": "Feature", "properties": { "name": "Umspannwerk Raitersaich", "operator": "TenneT TSO GmbH;E.ON Netz GmbH", "voltage_max_kv": 380, "n_parts": 1, "v_bucket": "380" }, "geometry": { "type": "Point", "coordinates": [ 10.8430939286847, 49.37871365159792 ] } },
{ "type": "Feature", "properties": { "name": "Umspannwerk Müncherlbach", "operator": "TenneT TSO GmbH;E.ON Netz GmbH", "voltage_max_kv": 110, "n_parts": 2, "v_bucket": "110" }, "geometry": { "type": "Point", "coordinates": [ 10.8388390616979, 49.359826317839314 ] } },
{ "type": "Feature", "properties": { "name": "Umspannwerk Bergrheinfeld", "operator": "TenneT TSO GmbH", "voltage_max_kv": 380, "n_parts": 2, "v_bucket": "380" }, "geometry": { "type": "Point", "coordinates": [ 10.154874346621373, 49.989353746583909 ] } },
{ "type": "Feature", "properties": { "name": "Farge", "operator": "Avacon Netz GmbH", "voltage_max_kv": 380, "n_parts": 2, "v_bucket": "380" }, "geometry": { "type": "Point", "coordinates": [ 8.517216271237034, 53.203263064183922 ] } },
{ "type": "Feature", "properties": { "name": "Umspannwerk Zirndorf", "operator": "", "voltage_max_kv": 110, "n_parts": 1, "v_bucket": "110" }, "geometry": { "type": "Point", "coordinates": [ 10.942910210551098, 49.427456418651737 ] } },
{ "type": "Feature", "properties": { "name": "Umspannwerk Redwitz", "operator": "TenneT TSO GmbH", "voltage_max_kv": 380, "n_parts": 3, "v_bucket": "380" }, "geometry": { "type": "Point", "coordinates": [ 11.193163433120272, 50.162936850352487 ] } },
{ "type": "Feature", "properties": { "name": "Umspannwerk Würgau", "operator": "TenneT TSO", "voltage_max_kv": 380, "n_parts": 2, "v_bucket": "380" }, "geometry": { "type": "Point", "coordinates": [ 11.106118365839169, 49.979504626673133 ] } },
{ "type": "Feature", "properties": { "name": "Umspannwerk Oberhaid", "operator": "TenneT TSO", "voltage_max_kv": 380, "n_parts": 1, "v_bucket": "380" }, "geometry": { "type": "Point", "coordinates": [ 10.836015792033738, 49.928067424909841 ] } },
{ "type": "Feature", "properties": { "name": "Eltmann", "operator": "Bayernwerk", "voltage_max_kv": 380, "n_parts": 1, "v_bucket": "380" }, "geometry": { "type": "Point", "coordinates": [ 10.664447322384641, 49.980038510575696 ] } },
{ "type": "Feature", "properties": { "name": "Umspannwerk Sittling", "operator": "TenneT TSO GmbH;E.ON Netz GmbH", "voltage_max_kv": 220, "n_parts": 1, "v_bucket": "220" }, "geometry": { "type": "Point", "coordinates": [ 11.792413882419895, 48.838224046813011 ] } },
{ "type": "Feature", "properties": { "name": "Schweinfurt", "operator": "TenneT TSO GmbH;Bayernwerk Netz GmbH", "voltage_max_kv": 110, "n_parts": 1, "v_bucket": "110" }, "geometry": { "type": "Point", "coordinates": [ 10.196706689201072, 50.028779948550785 ] } },
{ "type": "Feature", "properties": { "name": "Umspannwerk Iphofen", "operator": "", "voltage_max_kv": 110, "n_parts": 1, "v_bucket": "110" }, "geometry": { "type": "Point", "coordinates": [ 10.255386215849404, 49.693457789437296 ] } },
{ "type": "Feature", "properties": { "name": "Umspannwerk Diespeck", "operator": "", "voltage_max_kv": 110, "n_parts": 1, "v_bucket": "110" }, "geometry": { "type": "Point", "coordinates": [ 10.627005806183655, 49.602082308016151 ] } },
{ "type": "Feature", "properties": { "name": "Umspannwerk Trennfeld", "operator": "TenneT TSO GmbH;E.ON Netz GmbH", "voltage_max_kv": 220, "n_parts": 1, "v_bucket": "220" }, "geometry": { "type": "Point", "coordinates": [ 9.594319337569926, 49.798425923043446 ] } },
{ "type": "Feature", "properties": { "name": "Umspannwerk Petersgmünd", "operator": "", "voltage_max_kv": 110, "n_parts": 1, "v_bucket": "110" }, "geometry": { "type": "Point", "coordinates": [ 11.025292706220688, 49.177179831483933 ] } },
{ "type": "Feature", "properties": { "name": "Ingolstadt", "operator": "", "voltage_max_kv": 380, "n_parts": 1, "v_bucket": "380" }, "geometry": { "type": "Point", "coordinates": [ 11.507752326135407, 48.761130606045377 ] } },
{ "type": "Feature", "properties": { "name": "Station Osterath", "operator": "RWE", "voltage_max_kv": 380, "n_parts": 2, "v_bucket": "380" }, "geometry": { "type": "Point", "coordinates": [ 6.624336117669251, 51.259662328099672 ] } },
{ "type": "Feature", "properties": { "name": "Station Dülken", "operator": "Amprion", "voltage_max_kv": 380, "n_parts": 1, "v_bucket": "380" }, "geometry": { "type": "Point", "coordinates": [ 6.3300470783101, 51.242929383178556 ] } },
{ "type": "Feature", "properties": { "name": "Umspannwerk Harburg", "operator": "Netze BW", "voltage_max_kv": 110, "n_parts": 2, "v_bucket": "110" }, "geometry": { "type": "Point", "coordinates": [ 10.691938550574944, 48.776172466148054 ] } },
{ "type": "Feature", "properties": { "name": "Station Schacht V", "operator": "Westnetz", "voltage_max_kv": 110, "n_parts": 1, "v_bucket": "110" }, "geometry": { "type": "Point", "coordinates": [ 6.636140042827235, 51.470713819353371 ] } },
{ "type": "Feature", "properties": { "name": "Umspannwerk Rommerskirchen", "operator": "Amprion", "voltage_max_kv": 380, "n_parts": 1, "v_bucket": "380" }, "geometry": { "type": "Point", "coordinates": [ 6.701994866017188, 51.008806021210134 ] } },
{ "type": "Feature", "properties": { "name": "Umspannanlage Ober-Roden", "operator": "e-netz Südhessen GmbH & Co. KG", "voltage_max_kv": 110, "n_parts": 1, "v_bucket": "110" }, "geometry": { "type": "Point", "coordinates": [ 8.843745757736812, 49.965174747647119 ] } },
{ "type": "Feature", "properties": { "name": "Umspannwerk Dietzenbach", "operator": "EVO", "voltage_max_kv": 110, "n_parts": 1, "v_bucket": "110" }, "geometry": { "type": "Point", "coordinates": [ 8.7999637166534, 50.002388623084414 ] } },
{ "type": "Feature", "properties": { "name": "Station Eving", "operator": "DSW21", "voltage_max_kv": 110, "n_parts": 1, "v_bucket": "110" }, "geometry": { "type": "Point", "coordinates": [ 7.454875884645886, 51.542395737898524 ] } },
{ "type": "Feature", "properties": { "name": "Union", "operator": "Westnetz", "voltage_max_kv": 110, "n_parts": 1, "v_bucket": "110" }, "geometry": { "type": "Point", "coordinates": [ 7.435751518669161, 51.5182788172771 ] } },
{ "type": "Feature", "properties": { "name": "Umspannwerk Rubi", "operator": "Allgäuer Überlandwerk", "voltage_max_kv": 110, "n_parts": 1, "v_bucket": "110" }, "geometry": { "type": "Point", "coordinates": [ 10.289238999356726, 47.437932425892861 ] } },
{ "type": "Feature", "properties": { "name": "Übernahmestelle Göggingen;Umspannwerk Göggingen", "operator": "Stadtwerke Augsburg;Lechwerke AG, Augsburg", "voltage_max_kv": 110, "n_parts": 1, "v_bucket": "110" }, "geometry": { "type": "Point", "coordinates": [ 10.879286698145176, 48.326245017346196 ] } },
{ "type": "Feature", "properties": { "name": "Station Büscherhof", "operator": "RWE", "voltage_max_kv": 380, "n_parts": 1, "v_bucket": "380" }, "geometry": { "type": "Point", "coordinates": [ 6.925906371920536, 51.498976185974627 ] } },
{ "type": "Feature", "properties": { "name": "Umspannwerk Pleinting", "operator": "TenneT TSO GmbH, E.ON Netz GmbH", "voltage_max_kv": 380, "n_parts": 2, "v_bucket": "380" }, "geometry": { "type": "Point", "coordinates": [ 13.105826104578551, 48.665153537644116 ] } },
{ "type": "Feature", "properties": { "name": "Bäumenheim", "operator": "LEW", "voltage_max_kv": 110, "n_parts": 1, "v_bucket": "110" }, "geometry": { "type": "Point", "coordinates": [ 10.827286403189783, 48.678775587835851 ] } },
{ "type": "Feature", "properties": { "name": "Station Saarn", "operator": "Westnetz", "voltage_max_kv": 110, "n_parts": 1, "v_bucket": "110" }, "geometry": { "type": "Point", "coordinates": [ 6.859871552435686, 51.40420230748559 ] } },
{ "type": "Feature", "properties": { "name": "", "operator": "Westnetz", "voltage_max_kv": 110, "n_parts": 1, "v_bucket": "110" }, "geometry": { "type": "Point", "coordinates": [ 7.134125698763689, 51.532830230570319 ] } },
{ "type": "Feature", "properties": { "name": "Station Wanne", "operator": "Westnetz", "voltage_max_kv": 110, "n_parts": 1, "v_bucket": "110" }, "geometry": { "type": "Point", "coordinates": [ 7.140650190384016, 51.557248348828473 ] } },
{ "type": "Feature", "properties": { "name": "Station Gelsenkirchen", "operator": "RWE", "voltage_max_kv": 110, "n_parts": 1, "v_bucket": "110" }, "geometry": { "type": "Point", "coordinates": [ 7.075269463396558, 51.519059947303766 ] } },
{ "type": "Feature", "properties": { "name": "Schalke", "operator": "", "voltage_max_kv": 110, "n_parts": 2, "v_bucket": "110" }, "geometry": { "type": "Point", "coordinates": [ 7.09195709522349, 51.525787319638169 ] } },
{ "type": "Feature", "properties": { "name": "Station Selbeck", "operator": "Amprion;Westnetz", "voltage_max_kv": 380, "n_parts": 1, "v_bucket": "380" }, "geometry": { "type": "Point", "coordinates": [ 6.86804500364742, 51.374474814162014 ] } },
{ "type": "Feature", "properties": { "name": "Station Herten", "operator": "RWE;Stadtwerke Herten", "voltage_max_kv": 110, "n_parts": 1, "v_bucket": "110" }, "geometry": { "type": "Point", "coordinates": [ 7.106214408889762, 51.600655832321593 ] } },
{ "type": "Feature", "properties": { "name": "Station Gelsenberg", "operator": "RWE;ELE", "voltage_max_kv": 220, "n_parts": 1, "v_bucket": "220" }, "geometry": { "type": "Point", "coordinates": [ 7.037017969330833, 51.540737464894981 ] } },
{ "type": "Feature", "properties": { "name": "Station Speldorf", "operator": "Westnetz", "voltage_max_kv": 110, "n_parts": 1, "v_bucket": "110" }, "geometry": { "type": "Point", "coordinates": [ 6.850099341225523, 51.42718110682479 ] } },
{ "type": "Feature", "properties": { "name": "Station Ellinghorst", "operator": "RWE", "voltage_max_kv": 110, "n_parts": 1, "v_bucket": "110" }, "geometry": { "type": "Point", "coordinates": [ 6.931940613353446, 51.565044565700404 ] } },
{ "type": "Feature", "properties": { "name": "Umspannwerk Böckingen", "operator": "ENBW", "voltage_max_kv": 110, "n_parts": 1, "v_bucket": "110" }, "geometry": { "type": "Point", "coordinates": [ 9.177823200736309, 49.133759416324587 ] } },
{ "type": "Feature", "properties": { "name": "Minden/West", "operator": "EON_WestfalenWeser", "voltage_max_kv": 110, "n_parts": 1, "v_bucket": "110" }, "geometry": { "type": "Point", "coordinates": [ 8.886158235708647, 52.286020696450905 ] } },
{ "type": "Feature", "properties": { "name": "Umspannwerk Höningen", "operator": "RheinEnergie", "voltage_max_kv": 110, "n_parts": 1, "v_bucket": "110" }, "geometry": { "type": "Point", "coordinates": [ 6.93333492094877, 50.883274744775655 ] } },
{ "type": "Feature", "properties": { "name": "Umspannwerk Parsberg", "operator": "E.ON Netz GmbH", "voltage_max_kv": 110, "n_parts": 1, "v_bucket": "110" }, "geometry": { "type": "Point", "coordinates": [ 11.736226747460037, 49.158333089912297 ] } },
{ "type": "Feature", "properties": { "name": "RWENet Station Würselen, enwor Unterwerk Neustraße", "operator": "", "voltage_max_kv": 110, "n_parts": 1, "v_bucket": "110" }, "geometry": { "type": "Point", "coordinates": [ 6.126711855405021, 50.833195683862265 ] } },
{ "type": "Feature", "properties": { "name": "Umspannwerk Herbertingen", "operator": "EnBW", "voltage_max_kv": 380, "n_parts": 1, "v_bucket": "380" }, "geometry": { "type": "Point", "coordinates": [ 9.425323367487042, 48.064441841290829 ] } },
{ "type": "Feature", "properties": { "name": "Kummerfeld", "operator": "TenneT TSO", "voltage_max_kv": 380, "n_parts": 2, "v_bucket": "380" }, "geometry": { "type": "Point", "coordinates": [ 9.77667372484459, 53.690592712946845 ] } },
{ "type": "Feature", "properties": { "name": "Umspannanlage Neuenheim", "operator": "Stadtwerke Heidelberg Netze GmbH", "voltage_max_kv": 110, "n_parts": 1, "v_bucket": "110" }, "geometry": { "type": "Point", "coordinates": [ 8.674074557675103, 49.42222216232939 ] } },
{ "type": "Feature", "properties": { "name": "Umspannwerk Großholz", "operator": "Netze BW GmbH", "voltage_max_kv": 110, "n_parts": 1, "v_bucket": "110" }, "geometry": { "type": "Point", "coordinates": [ 9.095790696099757, 48.520727672635097 ] } },
{ "type": "Feature", "properties": { "name": "Umspannanlage Zukunft", "operator": "", "voltage_max_kv": 380, "n_parts": 1, "v_bucket": "380" }, "geometry": { "type": "Point", "coordinates": [ 6.300916715809194, 50.828939230499209 ] } },
{ "type": "Feature", "properties": { "name": "Station Borbeck", "operator": "RWE", "voltage_max_kv": 110, "n_parts": 1, "v_bucket": "110" }, "geometry": { "type": "Point", "coordinates": [ 6.947490726005213, 51.498820745774907 ] } },
{ "type": "Feature", "properties": { "name": "Station Frintrop", "operator": "Westnetz", "voltage_max_kv": 110, "n_parts": 1, "v_bucket": "110" }, "geometry": { "type": "Point", "coordinates": [ 6.922784843497843, 51.473670244558143 ] } },
{ "type": "Feature", "properties": { "name": "Umspannwerk Memmingen", "operator": "LEW", "voltage_max_kv": 110, "n_parts": 1, "v_bucket": "110" }, "geometry": { "type": "Point", "coordinates": [ 10.194933514087705, 47.970936907231078 ] } },
{ "type": "Feature", "properties": { "name": "Station Roxel", "operator": "Amprion", "voltage_max_kv": 380, "n_parts": 1, "v_bucket": "380" }, "geometry": { "type": "Point", "coordinates": [ 7.545853770473497, 51.970334314433259 ] } },
{ "type": "Feature", "properties": { "name": "Umspannwerk Marke", "operator": "MITNETZ Strom", "voltage_max_kv": 380, "n_parts": 2, "v_bucket": "380" }, "geometry": { "type": "Point", "coordinates": [ 12.262424304745727, 51.741205220548657 ] } },
{ "type": "Feature", "properties": { "name": "", "operator": "", "voltage_max_kv": 110, "n_parts": 1, "v_bucket": "110" }, "geometry": { "type": "Point", "coordinates": [ 8.211364070816057, 50.056942857982435 ] } },
{ "type": "Feature", "properties": { "name": "Umspannwerk Knittlingen", "operator": "EnBW", "voltage_max_kv": 110, "n_parts": 1, "v_bucket": "110" }, "geometry": { "type": "Point", "coordinates": [ 8.755113677933071, 49.01857421951344 ] } },
{ "type": "Feature", "properties": { "name": "Transnet BW Umspannwerk Hoheneck", "operator": "TransnetBW GmbH", "voltage_max_kv": 380, "n_parts": 3, "v_bucket": "380" }, "geometry": { "type": "Point", "coordinates": [ 9.195944663834855, 48.913583777719872 ] } },
{ "type": "Feature", "properties": { "name": "Station Schermbeck", "operator": "Westnetz", "voltage_max_kv": 110, "n_parts": 1, "v_bucket": "110" }, "geometry": { "type": "Point", "coordinates": [ 6.857378312566727, 51.679245358572651 ] } },
{ "type": "Feature", "properties": { "name": "Umspannwerk Bernau", "operator": "E.DIS Netz", "voltage_max_kv": 110, "n_parts": 1, "v_bucket": "110" }, "geometry": { "type": "Point", "coordinates": [ 13.563331713890125, 52.669571980441404 ] } },
{ "type": "Feature", "properties": { "name": "Umspannwerk Rothenburg", "operator": "", "voltage_max_kv": 110, "n_parts": 1, "v_bucket": "110" }, "geometry": { "type": "Point", "coordinates": [ 10.199831149964378, 49.373122086003683 ] } },
{ "type": "Feature", "properties": { "name": "Umspannwerk Elsen", "operator": "avavon;TenneT", "voltage_max_kv": 380, "n_parts": 1, "v_bucket": "380" }, "geometry": { "type": "Point", "coordinates": [ 8.702250234072878, 51.736387767440853 ] } },
{ "type": "Feature", "properties": { "name": "Siersdorf", "operator": "", "voltage_max_kv": 380, "n_parts": 1, "v_bucket": "380" }, "geometry": { "type": "Point", "coordinates": [ 6.216398335117442, 50.912768739693675 ] } },
{ "type": "Feature", "properties": { "name": "Magdeburg/Diesdorf", "operator": "Netze Magdeburg GmbH", "voltage_max_kv": 110, "n_parts": 2, "v_bucket": "110" }, "geometry": { "type": "Point", "coordinates": [ 11.568345139101028, 52.125774365167921 ] } },
{ "type": "Feature", "properties": { "name": "Umspannwerk Ottenhofen", "operator": "TenneT TSO", "voltage_max_kv": 380, "n_parts": 1, "v_bucket": "380" }, "geometry": { "type": "Point", "coordinates": [ 11.868156803708992, 48.206802570204225 ] } },
{ "type": "Feature", "properties": { "name": "Umspannwerk Wendlingen", "operator": "TransnetBW GmbH", "voltage_max_kv": 380, "n_parts": 1, "v_bucket": "380" }, "geometry": { "type": "Point", "coordinates": [ 9.400581856522091, 48.666967388920753 ] } },
{ "type": "Feature", "properties": { "name": "Station Rosenblumendelle", "operator": "RWE", "voltage_max_kv": 380, "n_parts": 1, "v_bucket": "380" }, "geometry": { "type": "Point", "coordinates": [ 6.948210989876651, 51.444575899377519 ] } },
{ "type": "Feature", "properties": { "name": "Umspannwerk Bamberg-Nord", "operator": "Stadtwerke Bamberg;EON Netz", "voltage_max_kv": 110, "n_parts": 1, "v_bucket": "110" }, "geometry": { "type": "Point", "coordinates": [ 10.903613174349308, 49.917297160249063 ] } },
{ "type": "Feature", "properties": { "name": "Station Gütersloh", "operator": "Amprion;Westnetz", "voltage_max_kv": 380, "n_parts": 2, "v_bucket": "380" }, "geometry": { "type": "Point", "coordinates": [ 8.363964683592529, 51.927125236126628 ] } },
{ "type": "Feature", "properties": { "name": "Netze BW Umspannwerk Bünzwangen", "operator": "Netze BW", "voltage_max_kv": 380, "n_parts": 1, "v_bucket": "380" }, "geometry": { "type": "Point", "coordinates": [ 9.562763578011925, 48.701464301392498 ] } },
{ "type": "Feature", "properties": { "name": "Umspannwerk Laichingen", "operator": "Netze BW", "voltage_max_kv": 380, "n_parts": 1, "v_bucket": "380" }, "geometry": { "type": "Point", "coordinates": [ 9.704218905865668, 48.464975663352106 ] } },
{ "type": "Feature", "properties": { "name": "Burgwedel", "operator": "Avacon", "voltage_max_kv": 110, "n_parts": 1, "v_bucket": "110" }, "geometry": { "type": "Point", "coordinates": [ 9.887472807434753, 52.494494763530064 ] } },
{ "type": "Feature", "properties": { "name": "Voslapp", "operator": "TenneT;EON_Netz", "voltage_max_kv": 220, "n_parts": 1, "v_bucket": "220" }, "geometry": { "type": "Point", "coordinates": [ 8.085650635023503, 53.605834223877849 ] } },
{ "type": "Feature", "properties": { "name": "Rüstersiel", "operator": "Avacon Netz GmbH", "voltage_max_kv": 110, "n_parts": 1, "v_bucket": "110" }, "geometry": { "type": "Point", "coordinates": [ 8.126471105543871, 53.551769205771542 ] } },
{ "type": "Feature", "properties": { "name": "Kabelgarten Schwärzloch", "operator": "Stadtwerke Tübingen", "voltage_max_kv": 110, "n_parts": 1, "v_bucket": "110" }, "geometry": { "type": "Point", "coordinates": [ 9.021600285776293, 48.515915072598055 ] } },
{ "type": "Feature", "properties": { "name": "Umspannwerk Wolmirstedt", "operator": "50Hertz Transmission", "voltage_max_kv": 380, "n_parts": 2, "v_bucket": "380" }, "geometry": { "type": "Point", "coordinates": [ 11.637856190429686, 52.267964195100276 ] } },
{ "type": "Feature", "properties": { "name": "Umspannwerk Helmstedt", "operator": "TenneT TSO GmbH", "voltage_max_kv": 380, "n_parts": 2, "v_bucket": "380" }, "geometry": { "type": "Point", "coordinates": [ 11.002473021524921, 52.197882930462342 ] } },
{ "type": "Feature", "properties": { "name": "Stelle", "operator": "Avacon", "voltage_max_kv": 110, "n_parts": 1, "v_bucket": "110" }, "geometry": { "type": "Point", "coordinates": [ 10.094578038381851, 53.395258999218221 ] } },
{ "type": "Feature", "properties": { "name": "Umspannwerk Jöllenbeck", "operator": "SWB Netz GmbH", "voltage_max_kv": 110, "n_parts": 1, "v_bucket": "110" }, "geometry": { "type": "Point", "coordinates": [ 8.518687162235258, 52.10561980270186 ] } },
{ "type": "Feature", "properties": { "name": "Station Tarforst", "operator": "", "voltage_max_kv": 110, "n_parts": 1, "v_bucket": "110" }, "geometry": { "type": "Point", "coordinates": [ 6.693372601099135, 49.746044444833615 ] } },
{ "type": "Feature", "properties": { "name": "Umspannwerk Holzkirchen", "operator": "E.ON Netz GmbH", "voltage_max_kv": 110, "n_parts": 1, "v_bucket": "110" }, "geometry": { "type": "Point", "coordinates": [ 11.69044164566138, 47.866688503649947 ] } },
{ "type": "Feature", "properties": { "name": "Nieder Wöllstadt", "operator": "Avacon Netz", "voltage_max_kv": 110, "n_parts": 1, "v_bucket": "110" }, "geometry": { "type": "Point", "coordinates": [ 8.765479865118408, 50.279724855735168 ] } },
{ "type": "Feature", "properties": { "name": "Station Oberzier", "operator": "Amprion", "voltage_max_kv": 380, "n_parts": 2, "v_bucket": "380" }, "geometry": { "type": "Point", "coordinates": [ 6.456491702235025, 50.871033151729094 ] } },
{ "type": "Feature", "properties": { "name": "", "operator": "", "voltage_max_kv": 110, "n_parts": 1, "v_bucket": "110" }, "geometry": { "type": "Point", "coordinates": [ 6.440241242233355, 50.813269768043902 ] } },
{ "type": "Feature", "properties": { "name": "Umspannwerk Bielefeld Ost", "operator": "Stadtwerke Bielefeld", "voltage_max_kv": 110, "n_parts": 1, "v_bucket": "110" }, "geometry": { "type": "Point", "coordinates": [ 8.628948994319101, 51.993591343688571 ] } },
{ "type": "Feature", "properties": { "name": "Station Witterschlick", "operator": "Westnetz", "voltage_max_kv": 110, "n_parts": 1, "v_bucket": "110" }, "geometry": { "type": "Point", "coordinates": [ 7.007918859416081, 50.688189845826876 ] } },
{ "type": "Feature", "properties": { "name": "Station Merl", "operator": "RWE", "voltage_max_kv": 110, "n_parts": 1, "v_bucket": "110" }, "geometry": { "type": "Point", "coordinates": [ 7.045540723200197, 50.631421522614993 ] } },
{ "type": "Feature", "properties": { "name": "", "operator": "", "voltage_max_kv": 110, "n_parts": 1, "v_bucket": "110" }, "geometry": { "type": "Point", "coordinates": [ 6.373268669371393, 50.82122225246254 ] } },
{ "type": "Feature", "properties": { "name": "Umspannanlage Annen", "operator": "AVU AG", "voltage_max_kv": 110, "n_parts": 2, "v_bucket": "110" }, "geometry": { "type": "Point", "coordinates": [ 7.357481108399451, 51.44504810599625 ] } },
{ "type": "Feature", "properties": { "name": "Station Ließem", "operator": "Amprion", "voltage_max_kv": 380, "n_parts": 1, "v_bucket": "380" }, "geometry": { "type": "Point", "coordinates": [ 7.136855966474578, 50.642920984505274 ] } },
{ "type": "Feature", "properties": { "name": "Umspannwerk Oberjettingen", "operator": "Netze BW GmbH;TransnetBW GmbH", "voltage_max_kv": 380, "n_parts": 1, "v_bucket": "380" }, "geometry": { "type": "Point", "coordinates": [ 8.785153757962171, 48.583621749119011 ] } },
{ "type": "Feature", "properties": { "name": "Station Mehlem", "operator": "Westnetz", "voltage_max_kv": 110, "n_parts": 1, "v_bucket": "110" }, "geometry": { "type": "Point", "coordinates": [ 7.184775586751097, 50.664663961164862 ] } },
{ "type": "Feature", "properties": { "name": "Umspannwerk Schwaig", "operator": "N-ERGIE Netz GmbH", "voltage_max_kv": 110, "n_parts": 1, "v_bucket": "110" }, "geometry": { "type": "Point", "coordinates": [ 11.200427850112922, 49.466243163835166 ] } },
{ "type": "Feature", "properties": { "name": "", "operator": "", "voltage_max_kv": 110, "n_parts": 1, "v_bucket": "110" }, "geometry": { "type": "Point", "coordinates": [ 6.469466367930039, 50.808098812413625 ] } },
{ "type": "Feature", "properties": { "name": "Station Paffendorf", "operator": "Amprion", "voltage_max_kv": 380, "n_parts": 1, "v_bucket": "380" }, "geometry": { "type": "Point", "coordinates": [ 6.59601986092356, 50.952527480893693 ] } },
{ "type": "Feature", "properties": { "name": "Umspannwerk Sennestadt", "operator": "SWB Netz GmbH", "voltage_max_kv": 110, "n_parts": 1, "v_bucket": "110" }, "geometry": { "type": "Point", "coordinates": [ 8.591799766508661, 51.959994595124265 ] } },
{ "type": "Feature", "properties": { "name": "Umspannwerk Haunstetten", "operator": "Lechwerke", "voltage_max_kv": 110, "n_parts": 1, "v_bucket": "110" }, "geometry": { "type": "Point", "coordinates": [ 10.901752596237756, 48.320843490051672 ] } },
{ "type": "Feature", "properties": { "name": "Kiel-Süd", "operator": "TenneT;Schleswig-Holstein Netz", "voltage_max_kv": 220, "n_parts": 1, "v_bucket": "220" }, "geometry": { "type": "Point", "coordinates": [ 10.156300460134592, 54.275555745945823 ] } },
{ "type": "Feature", "properties": { "name": "Station Greven", "operator": "Westnetz", "voltage_max_kv": 110, "n_parts": 1, "v_bucket": "110" }, "geometry": { "type": "Point", "coordinates": [ 7.600204388468014, 52.084833833444769 ] } },
{ "type": "Feature", "properties": { "name": "Umspannwerk Wustermark", "operator": "50Hertz Transmission", "voltage_max_kv": 380, "n_parts": 3, "v_bucket": "380" }, "geometry": { "type": "Point", "coordinates": [ 12.94141789233036, 52.562334558609862 ] } },
{ "type": "Feature", "properties": { "name": "", "operator": "Avacon Netz", "voltage_max_kv": 110, "n_parts": 1, "v_bucket": "110" }, "geometry": { "type": "Point", "coordinates": [ 9.792439871823893, 52.431843557627829 ] } },
{ "type": "Feature", "properties": { "name": "", "operator": "Avacon Netz", "voltage_max_kv": 110, "n_parts": 1, "v_bucket": "110" }, "geometry": { "type": "Point", "coordinates": [ 9.746071033681401, 52.427852876502847 ] } },
{ "type": "Feature", "properties": { "name": "", "operator": "", "voltage_max_kv": 110, "n_parts": 1, "v_bucket": "110" }, "geometry": { "type": "Point", "coordinates": [ 11.824088050002045, 48.339201650033672 ] } },
{ "type": "Feature", "properties": { "name": "Umspannstation Irsingen", "operator": "", "voltage_max_kv": 110, "n_parts": 1, "v_bucket": "110" }, "geometry": { "type": "Point", "coordinates": [ 10.641276683587627, 48.027449716427654 ] } },
{ "type": "Feature", "properties": { "name": "Nenndorf", "operator": "Avacon Netz GmbH", "voltage_max_kv": 110, "n_parts": 1, "v_bucket": "110" }, "geometry": { "type": "Point", "coordinates": [ 9.90661261174631, 53.376230338647034 ] } },
{ "type": "Feature", "properties": { "name": "", "operator": "Bayernwerk Netz GmbH", "voltage_max_kv": 110, "n_parts": 1, "v_bucket": "110" }, "geometry": { "type": "Point", "coordinates": [ 11.756583713817482, 48.087329623532277 ] } },
{ "type": "Feature", "properties": { "name": "Neuenland", "operator": "Wesernetz", "voltage_max_kv": 110, "n_parts": 1, "v_bucket": "110" }, "geometry": { "type": "Point", "coordinates": [ 8.784533882388152, 53.063704063805453 ] } },
{ "type": "Feature", "properties": { "name": "Umspannwerk Gültstein", "operator": "Netze BW GmbH", "voltage_max_kv": 110, "n_parts": 1, "v_bucket": "110" }, "geometry": { "type": "Point", "coordinates": [ 8.896721475809299, 48.577142773692692 ] } },
{ "type": "Feature", "properties": { "name": "Umspannwerk Esslingen Ost", "operator": "EnBW", "voltage_max_kv": 110, "n_parts": 1, "v_bucket": "110" }, "geometry": { "type": "Point", "coordinates": [ 9.31995228293915, 48.729614719036967 ] } },
{ "type": "Feature", "properties": { "name": "Umspannwerk Isarau", "operator": "E.ON Netz", "voltage_max_kv": 110, "n_parts": 1, "v_bucket": "110" }, "geometry": { "type": "Point", "coordinates": [ 11.655435140557479, 48.201709644330883 ] } },
{ "type": "Feature", "properties": { "name": "Minden/Süd", "operator": "EON_WestfalenWeser", "voltage_max_kv": 110, "n_parts": 1, "v_bucket": "110" }, "geometry": { "type": "Point", "coordinates": [ 8.867221189962779, 52.26690958702703 ] } },
{ "type": "Feature", "properties": { "name": "Umspannwerk Steglitz", "operator": "Stromnetz Berlin", "voltage_max_kv": 110, "n_parts": 1, "v_bucket": "110" }, "geometry": { "type": "Point", "coordinates": [ 13.329453744639991, 52.443791229800802 ] } },
{ "type": "Feature", "properties": { "name": "110kV-Umspannwerk Merklingen", "operator": "", "voltage_max_kv": 110, "n_parts": 2, "v_bucket": "110" }, "geometry": { "type": "Point", "coordinates": [ 8.831838325421263, 48.773564131867921 ] } },
{ "type": "Feature", "properties": { "name": "Umspannwerk Bleidenstadt", "operator": "", "voltage_max_kv": 110, "n_parts": 1, "v_bucket": "110" }, "geometry": { "type": "Point", "coordinates": [ 8.136392129010979, 50.144053319878999 ] } },
{ "type": "Feature", "properties": { "name": "Umspannwerk Happurg", "operator": "TenneT TSO", "voltage_max_kv": 110, "n_parts": 2, "v_bucket": "110" }, "geometry": { "type": "Point", "coordinates": [ 11.473309624925816, 49.487778268537895 ] } },
{ "type": "Feature", "properties": { "name": "Schaltwerk Nitzahn", "operator": "DB Energie GmbH", "voltage_max_kv": 110, "n_parts": 1, "v_bucket": "110" }, "geometry": { "type": "Point", "coordinates": [ 12.345823680935629, 52.459758607635656 ] } },
{ "type": "Feature", "properties": { "name": "Kiel West", "operator": "TenneT", "voltage_max_kv": 220, "n_parts": 1, "v_bucket": "220" }, "geometry": { "type": "Point", "coordinates": [ 10.060406852851207, 54.348767481103422 ] } },
{ "type": "Feature", "properties": { "name": "Potsdam Süd", "operator": "E.DIS Netz GmbH", "voltage_max_kv": 110, "n_parts": 1, "v_bucket": "110" }, "geometry": { "type": "Point", "coordinates": [ 13.113309853935867, 52.365065453616296 ] } },
{ "type": "Feature", "properties": { "name": "Landesbergen", "operator": "TenneT TSO", "voltage_max_kv": 380, "n_parts": 1, "v_bucket": "380" }, "geometry": { "type": "Point", "coordinates": [ 9.125265723586507, 52.538264055312681 ] } },
{ "type": "Feature", "properties": { "name": "Umspannanlage Geislautern", "operator": "", "voltage_max_kv": 110, "n_parts": 1, "v_bucket": "110" }, "geometry": { "type": "Point", "coordinates": [ 6.840055372596114, 49.235644261603184 ] } },
{ "type": "Feature", "properties": { "name": "Valdorf", "operator": "Westfalen Weser Netz GmbH", "voltage_max_kv": 110, "n_parts": 1, "v_bucket": "110" }, "geometry": { "type": "Point", "coordinates": [ 8.816719323580646, 52.135425187235342 ] } },
{ "type": "Feature", "properties": { "name": "Burgdorf", "operator": "Avacon Netz GmbH", "voltage_max_kv": 110, "n_parts": 1, "v_bucket": "110" }, "geometry": { "type": "Point", "coordinates": [ 10.025813536397532, 52.449983971473102 ] } },
{ "type": "Feature", "properties": { "name": "Station Dünnwald", "operator": "", "voltage_max_kv": 220, "n_parts": 1, "v_bucket": "220" }, "geometry": { "type": "Point", "coordinates": [ 7.02352120645544, 50.999063972738639 ] } },
{ "type": "Feature", "properties": { "name": "Station Gohrpunkt", "operator": "Amprion", "voltage_max_kv": 220, "n_parts": 1, "v_bucket": "220" }, "geometry": { "type": "Point", "coordinates": [ 6.70972962963705, 51.090946404806083 ] } },
{ "type": "Feature", "properties": { "name": "", "operator": "EGT Energie GmbH", "voltage_max_kv": 110, "n_parts": 1, "v_bucket": "110" }, "geometry": { "type": "Point", "coordinates": [ 8.342010100598388, 48.125173800223095 ] } },
{ "type": "Feature", "properties": { "name": "", "operator": "", "voltage_max_kv": 110, "n_parts": 1, "v_bucket": "110" }, "geometry": { "type": "Point", "coordinates": [ 12.419053946693507, 51.372821626197833 ] } },
{ "type": "Feature", "properties": { "name": "Umspannwerk Hänigsen", "operator": "Avacon Netz GmbH", "voltage_max_kv": 110, "n_parts": 1, "v_bucket": "110" }, "geometry": { "type": "Point", "coordinates": [ 10.110376716600022, 52.473483201963056 ] } },
{ "type": "Feature", "properties": { "name": "", "operator": "", "voltage_max_kv": 110, "n_parts": 1, "v_bucket": "110" }, "geometry": { "type": "Point", "coordinates": [ 11.35083985004481, 48.161686350052271 ] } },
{ "type": "Feature", "properties": { "name": "Hamburg/Nord", "operator": "TenneT TSO", "voltage_max_kv": 220, "n_parts": 1, "v_bucket": "220" }, "geometry": { "type": "Point", "coordinates": [ 9.988361894207024, 53.765936199430357 ] } },
{ "type": "Feature", "properties": { "name": "", "operator": "", "voltage_max_kv": 110, "n_parts": 1, "v_bucket": "110" }, "geometry": { "type": "Point", "coordinates": [ 8.122954692086788, 50.028865041128519 ] } },
{ "type": "Feature", "properties": { "name": "Umspannwerk Elsenfeld", "operator": "Bayernwerk AG", "voltage_max_kv": 110, "n_parts": 1, "v_bucket": "110" }, "geometry": { "type": "Point", "coordinates": [ 9.161972738418536, 49.833574952727751 ] } },
{ "type": "Feature", "properties": { "name": "Blumenau", "operator": "Avacon Netz", "voltage_max_kv": 110, "n_parts": 1, "v_bucket": "110" }, "geometry": { "type": "Point", "coordinates": [ 9.460719209516313, 52.434137163920539 ] } },
{ "type": "Feature", "properties": { "name": "Garbsen", "operator": "Avacon Netz GmbH", "voltage_max_kv": 110, "n_parts": 1, "v_bucket": "110" }, "geometry": { "type": "Point", "coordinates": [ 9.58555847782389, 52.425269246475061 ] } },
{ "type": "Feature", "properties": { "name": "Büren", "operator": "Avacon Netz", "voltage_max_kv": 110, "n_parts": 1, "v_bucket": "110" }, "geometry": { "type": "Point", "coordinates": [ 9.493409254152972, 52.598523108618203 ] } },
{ "type": "Feature", "properties": { "name": "Neustadt am Rübenberge", "operator": "Avacon", "voltage_max_kv": 110, "n_parts": 1, "v_bucket": "110" }, "geometry": { "type": "Point", "coordinates": [ 9.455812388946002, 52.494644352350115 ] } },
{ "type": "Feature", "properties": { "name": "Umspannwerk Hartenstein", "operator": "", "voltage_max_kv": 110, "n_parts": 1, "v_bucket": "110" }, "geometry": { "type": "Point", "coordinates": [ 11.515200453868868, 49.599170090707418 ] } },
{ "type": "Feature", "properties": { "name": "Schaltwerk Langenprozelten", "operator": "DB Energie GmbH", "voltage_max_kv": 110, "n_parts": 2, "v_bucket": "110" }, "geometry": { "type": "Point", "coordinates": [ 9.58138427574402, 50.052602672984058 ] } },
{ "type": "Feature", "properties": { "name": "Bostel", "operator": "Avacon Netz", "voltage_max_kv": 110, "n_parts": 1, "v_bucket": "110" }, "geometry": { "type": "Point", "coordinates": [ 10.130178562103858, 52.646381596144984 ] } },
{ "type": "Feature", "properties": { "name": "Oldau", "operator": "Avacon Netz", "voltage_max_kv": 110, "n_parts": 1, "v_bucket": "110" }, "geometry": { "type": "Point", "coordinates": [ 9.933999267713096, 52.657613668690807 ] } },
{ "type": "Feature", "properties": { "name": "Umspannwerk Friedersdorf", "operator": "SachsenEnergie", "voltage_max_kv": 110, "n_parts": 1, "v_bucket": "110" }, "geometry": { "type": "Point", "coordinates": [ 14.549949018649157, 51.035892060607573 ] } },
{ "type": "Feature", "properties": { "name": "Wülferode", "operator": "Avacon Netz GmbH", "voltage_max_kv": 110, "n_parts": 1, "v_bucket": "110" }, "geometry": { "type": "Point", "coordinates": [ 9.845887346333571, 52.323191951465617 ] } },
{ "type": "Feature", "properties": { "name": "Hallendorf", "operator": "TenneT;Avacon Netz GmbH", "voltage_max_kv": 220, "n_parts": 1, "v_bucket": "220" }, "geometry": { "type": "Point", "coordinates": [ 10.369230148786354, 52.167092442675838 ] } },
{ "type": "Feature", "properties": { "name": "Vahlhausen", "operator": "Westfalen Weser Netz", "voltage_max_kv": 110, "n_parts": 1, "v_bucket": "110" }, "geometry": { "type": "Point", "coordinates": [ 8.93064163078901, 51.941940933111439 ] } },
{ "type": "Feature", "properties": { "name": "Umspannwerk Wöhrder Tor", "operator": "N-ERGIE", "voltage_max_kv": 110, "n_parts": 2, "v_bucket": "110" }, "geometry": { "type": "Point", "coordinates": [ 11.084732451211584, 49.452681040697406 ] } },
{ "type": "Feature", "properties": { "name": "Umspannwerk Lüneburg", "operator": "TenneT;Avacon Netz GmbH", "voltage_max_kv": 380, "n_parts": 2, "v_bucket": "380" }, "geometry": { "type": "Point", "coordinates": [ 10.37874482331601, 53.219876510168888 ] } },
{ "type": "Feature", "properties": { "name": "Stadorf", "operator": "Avacon Netz", "voltage_max_kv": 380, "n_parts": 3, "v_bucket": "380" }, "geometry": { "type": "Point", "coordinates": [ 10.385267752675709, 52.994697128734408 ] } },
{ "type": "Feature", "properties": { "name": "Umspannanlage Süd", "operator": "HSE HEAG Südhessische Energie AG", "voltage_max_kv": 110, "n_parts": 1, "v_bucket": "110" }, "geometry": { "type": "Point", "coordinates": [ 8.636196014075749, 49.847743329399648 ] } },
{ "type": "Feature", "properties": { "name": "Umspannwerk Enzer Straße", "operator": "EON_Westfalen_Weser", "voltage_max_kv": 110, "n_parts": 1, "v_bucket": "110" }, "geometry": { "type": "Point", "coordinates": [ 9.178714610581359, 52.32427393556339 ] } },
{ "type": "Feature", "properties": { "name": "Veltheim", "operator": "Westfalen Weser Netz GmbH", "voltage_max_kv": 220, "n_parts": 2, "v_bucket": "220" }, "geometry": { "type": "Point", "coordinates": [ 8.932182057220713, 52.193301458801223 ] } },
{ "type": "Feature", "properties": { "name": "Grambke", "operator": "Wesernetz Bremen GmbH", "voltage_max_kv": 110, "n_parts": 2, "v_bucket": "110" }, "geometry": { "type": "Point", "coordinates": [ 8.714346395302815, 53.137565872937785 ] } },
{ "type": "Feature", "properties": { "name": "Mittelsbüren", "operator": "Wesernetz Bremen GmbH", "voltage_max_kv": 110, "n_parts": 1, "v_bucket": "110" }, "geometry": { "type": "Point", "coordinates": [ 8.680402327959687, 53.130243500025301 ] } },
{ "type": "Feature", "properties": { "name": "Umspannwerk Korbach", "operator": "Avacon Netz;Energie Waldeck-Frankenberg", "voltage_max_kv": 110, "n_parts": 1, "v_bucket": "110" }, "geometry": { "type": "Point", "coordinates": [ 8.868124864286532, 51.284705014433293 ] } },
{ "type": "Feature", "properties": { "name": "Station Sonsbeck", "operator": "RWE", "voltage_max_kv": 110, "n_parts": 1, "v_bucket": "110" }, "geometry": { "type": "Point", "coordinates": [ 6.376286133100745, 51.602391422459341 ] } },
{ "type": "Feature", "properties": { "name": "", "operator": "", "voltage_max_kv": 110, "n_parts": 1, "v_bucket": "110" }, "geometry": { "type": "Point", "coordinates": [ 6.685952054620942, 51.218781699741854 ] } },
{ "type": "Feature", "properties": { "name": "Umrichterwerk Düsseldorf", "operator": "DB Energie", "voltage_max_kv": 110, "n_parts": 1, "v_bucket": "110" }, "geometry": { "type": "Point", "coordinates": [ 6.729871927304984, 51.220082148112162 ] } },
{ "type": "Feature", "properties": { "name": "Umspannwerk Unterschleißheim", "operator": "E.ON", "voltage_max_kv": 110, "n_parts": 1, "v_bucket": "110" }, "geometry": { "type": "Point", "coordinates": [ 11.558694915903743, 48.283216839110445 ] } },
{ "type": "Feature", "properties": { "name": "Station Pöppinghausen", "operator": "Amprion", "voltage_max_kv": 220, "n_parts": 3, "v_bucket": "220" }, "geometry": { "type": "Point", "coordinates": [ 7.263684021897023, 51.570876679060582 ] } },
{ "type": "Feature", "properties": { "name": "EnBW Umspannwerk Reuterstraße", "operator": "EnBW", "voltage_max_kv": 110, "n_parts": 1, "v_bucket": "110" }, "geometry": { "type": "Point", "coordinates": [ 9.146167409657147, 48.774275498922414 ] } },
{ "type": "Feature", "properties": { "name": "Umspannanlage Markt Bibart", "operator": "N-ERGIE", "voltage_max_kv": 110, "n_parts": 1, "v_bucket": "110" }, "geometry": { "type": "Point", "coordinates": [ 10.443678464270027, 49.655168629716343 ] } },
{ "type": "Feature", "properties": { "name": "Umspannwerk Bierde", "operator": "Avacon", "voltage_max_kv": 110, "n_parts": 1, "v_bucket": "110" }, "geometry": { "type": "Point", "coordinates": [ 9.02292352295748, 52.366288617807086 ] } },
{ "type": "Feature", "properties": { "name": "Umspannwerk Erlangen", "operator": "", "voltage_max_kv": 110, "n_parts": 1, "v_bucket": "110" }, "geometry": { "type": "Point", "coordinates": [ 10.987196176131031, 49.583867451357868 ] } },
{ "type": "Feature", "properties": { "name": "Umspannwerk Kriegenbrunn", "operator": "Tennet TSO GmbH;Bayernwerk Netz GmbH;Main-Donau Netzgesellschaft mbH", "voltage_max_kv": 380, "n_parts": 1, "v_bucket": "380" }, "geometry": { "type": "Point", "coordinates": [ 10.972905253449859, 49.55851055472386 ] } },
{ "type": "Feature", "properties": { "name": "Umspannwerk Brietlingen", "operator": "Avacon Netz", "voltage_max_kv": 110, "n_parts": 1, "v_bucket": "110" }, "geometry": { "type": "Point", "coordinates": [ 10.46297184762045, 53.335025056937795 ] } },
{ "type": "Feature", "properties": { "name": "", "operator": "", "voltage_max_kv": 110, "n_parts": 1, "v_bucket": "110" }, "geometry": { "type": "Point", "coordinates": [ 8.849102455465596, 49.911205468256469 ] } },
{ "type": "Feature", "properties": { "name": "Station Endenich", "operator": "Westnetz", "voltage_max_kv": 110, "n_parts": 1, "v_bucket": "110" }, "geometry": { "type": "Point", "coordinates": [ 7.075979557644147, 50.735235059075656 ] } },
{ "type": "Feature", "properties": { "name": "Station Beuel", "operator": "Westnetz", "voltage_max_kv": 110, "n_parts": 1, "v_bucket": "110" }, "geometry": { "type": "Point", "coordinates": [ 7.146312269587777, 50.736452701677116 ] } },
{ "type": "Feature", "properties": { "name": "Umspannwerk Kastenweiher", "operator": "E.ON Netz GmbH", "voltage_max_kv": 110, "n_parts": 1, "v_bucket": "110" }, "geometry": { "type": "Point", "coordinates": [ 10.952232421617829, 49.581071972820062 ] } },
{ "type": "Feature", "properties": { "name": "UW Schönewalde", "operator": "50Hertz Transmission", "voltage_max_kv": 380, "n_parts": 3, "v_bucket": "380" }, "geometry": { "type": "Point", "coordinates": [ 13.159214330138481, 51.8272051008598 ] } },
{ "type": "Feature", "properties": { "name": "Station Vochem", "operator": "RWE", "voltage_max_kv": 110, "n_parts": 1, "v_bucket": "110" }, "geometry": { "type": "Point", "coordinates": [ 6.899738376383887, 50.843980788384002 ] } },
{ "type": "Feature", "properties": { "name": "Station Duisdorf", "operator": "Westnetz GmbH", "voltage_max_kv": 110, "n_parts": 1, "v_bucket": "110" }, "geometry": { "type": "Point", "coordinates": [ 7.045064352975297, 50.705652395331121 ] } },
{ "type": "Feature", "properties": { "name": "Wechold", "operator": "TenneT TSO GmbH;Avacon Netz GmbH", "voltage_max_kv": 220, "n_parts": 2, "v_bucket": "220" }, "geometry": { "type": "Point", "coordinates": [ 9.145169926508988, 52.853212524104869 ] } },
{ "type": "Feature", "properties": { "name": "Westendorf", "operator": "EON_Westfalen_Weser", "voltage_max_kv": 110, "n_parts": 1, "v_bucket": "110" }, "geometry": { "type": "Point", "coordinates": [ 9.145269676077179, 52.204991823097615 ] } },
{ "type": "Feature", "properties": { "name": "", "operator": "", "voltage_max_kv": 110, "n_parts": 1, "v_bucket": "110" }, "geometry": { "type": "Point", "coordinates": [ 8.090511457450232, 50.910851346423435 ] } },
{ "type": "Feature", "properties": { "name": "Umspannwerk", "operator": "EON_WestfalenWeser", "voltage_max_kv": 110, "n_parts": 2, "v_bucket": "110" }, "geometry": { "type": "Point", "coordinates": [ 8.65319425979334, 52.195687638511238 ] } },
{ "type": "Feature", "properties": { "name": "Umspannwerk Kraftwerk Robert Frank", "operator": "TenneT", "voltage_max_kv": 220, "n_parts": 1, "v_bucket": "220" }, "geometry": { "type": "Point", "coordinates": [ 9.11328484416687, 52.543851874037443 ] } },
{ "type": "Feature", "properties": { "name": "Schwandorf", "operator": "TenneT TSO GmbH, E.ON Netz GmbH", "voltage_max_kv": 380, "n_parts": 1, "v_bucket": "380" }, "geometry": { "type": "Point", "coordinates": [ 12.082217470957129, 49.29749513933843 ] } },
{ "type": "Feature", "properties": { "name": "Umspannwerk Amberg", "operator": "E.ON Netz GmbH", "voltage_max_kv": 110, "n_parts": 1, "v_bucket": "110" }, "geometry": { "type": "Point", "coordinates": [ 11.870063012751061, 49.424884114631418 ] } },
{ "type": "Feature", "properties": { "name": "Umspannwerk Janahof", "operator": "E.ON Netz GmbH", "voltage_max_kv": 110, "n_parts": 1, "v_bucket": "110" }, "geometry": { "type": "Point", "coordinates": [ 12.672008972113368, 49.197760538273528 ] } },
{ "type": "Feature", "properties": { "name": "Umspannwerk Neutraubling", "operator": "Bayernwerk Netz", "voltage_max_kv": 110, "n_parts": 1, "v_bucket": "110" }, "geometry": { "type": "Point", "coordinates": [ 12.206329157305653, 48.995071167703387 ] } },
{ "type": "Feature", "properties": { "name": "Umspannwerk Nittenau", "operator": "", "voltage_max_kv": 110, "n_parts": 1, "v_bucket": "110" }, "geometry": { "type": "Point", "coordinates": [ 12.28237307304286, 49.211124971422876 ] } },
{ "type": "Feature", "properties": { "name": "Umspannwerk Ponholz", "operator": "E.ON Netz GmbH", "voltage_max_kv": 110, "n_parts": 1, "v_bucket": "110" }, "geometry": { "type": "Point", "coordinates": [ 12.097692534061011, 49.177517862941713 ] } },
{ "type": "Feature", "properties": { "name": "Umspannwerk Kusenhorst", "operator": "Amprion;Westnetz", "voltage_max_kv": 380, "n_parts": 3, "v_bucket": "380" }, "geometry": { "type": "Point", "coordinates": [ 7.061268822113768, 51.696795392227166 ] } },
{ "type": "Feature", "properties": { "name": "Umspannwerk Neustrelitz", "operator": "E.DIS Netz GmbH", "voltage_max_kv": 110, "n_parts": 1, "v_bucket": "110" }, "geometry": { "type": "Point", "coordinates": [ 13.043456739318135, 53.406088065916769 ] } },
{ "type": "Feature", "properties": { "name": "Umspannwerk Etzenricht", "operator": "TenneT TSO", "voltage_max_kv": 380, "n_parts": 3, "v_bucket": "380" }, "geometry": { "type": "Point", "coordinates": [ 12.11522583495338, 49.631371073769934 ] } },
{ "type": "Feature", "properties": { "name": "Umspannwerk Siechen", "operator": "E.ON Netz GmbH", "voltage_max_kv": 110, "n_parts": 1, "v_bucket": "110" }, "geometry": { "type": "Point", "coordinates": [ 12.677917837335761, 49.225691882733258 ] } },
{ "type": "Feature", "properties": { "name": "Umspannwerk Delhoven", "operator": "", "voltage_max_kv": 110, "n_parts": 1, "v_bucket": "110" }, "geometry": { "type": "Point", "coordinates": [ 6.778767734530565, 51.084836904720021 ] } },
{ "type": "Feature", "properties": { "name": "", "operator": "", "voltage_max_kv": 110, "n_parts": 1, "v_bucket": "110" }, "geometry": { "type": "Point", "coordinates": [ 11.260866135918086, 48.048999067856997 ] } },
{ "type": "Feature", "properties": { "name": "", "operator": "", "voltage_max_kv": 110, "n_parts": 1, "v_bucket": "110" }, "geometry": { "type": "Point", "coordinates": [ 7.253661917462932, 51.601249488754235 ] } },
{ "type": "Feature", "properties": { "name": "Herne", "operator": "", "voltage_max_kv": 380, "n_parts": 3, "v_bucket": "380" }, "geometry": { "type": "Point", "coordinates": [ 7.180424494896782, 51.551626771082056 ] } },
{ "type": "Feature", "properties": { "name": "Umspannwerk Mecklar 380kV", "operator": "TenneT TSO", "voltage_max_kv": 380, "n_parts": 1, "v_bucket": "380" }, "geometry": { "type": "Point", "coordinates": [ 9.745926128932057, 50.917625713006416 ] } },
{ "type": "Feature", "properties": { "name": "Umspannwerk Thyrow", "operator": "50Hertz Transmission", "voltage_max_kv": 380, "n_parts": 3, "v_bucket": "380" }, "geometry": { "type": "Point", "coordinates": [ 13.305754073424062, 52.230596552992992 ] } },
{ "type": "Feature", "properties": { "name": "Ummeln", "operator": "Stadtwerke Bielefeld", "voltage_max_kv": 110, "n_parts": 1, "v_bucket": "110" }, "geometry": { "type": "Point", "coordinates": [ 8.449296203485401, 51.985920413084301 ] } },
{ "type": "Feature", "properties": { "name": "Umspannwerk Roding", "operator": "E.ON Netz GmbH", "voltage_max_kv": 110, "n_parts": 1, "v_bucket": "110" }, "geometry": { "type": "Point", "coordinates": [ 12.533859911972021, 49.217938052911194 ] } },
{ "type": "Feature", "properties": { "name": "Stade", "operator": "TenneT;Avacon Netz GmbH", "voltage_max_kv": 110, "n_parts": 1, "v_bucket": "110" }, "geometry": { "type": "Point", "coordinates": [ 9.529613188627936, 53.61897914593127 ] } },
{ "type": "Feature", "properties": { "name": "Umspannwerk Waldmünchen", "operator": "Stadtwerke Waldmünchen", "voltage_max_kv": 110, "n_parts": 1, "v_bucket": "110" }, "geometry": { "type": "Point", "coordinates": [ 12.69474849189616, 49.370122584672714 ] } },
{ "type": "Feature", "properties": { "name": "", "operator": "Bayernwerk AG", "voltage_max_kv": 110, "n_parts": 1, "v_bucket": "110" }, "geometry": { "type": "Point", "coordinates": [ 12.434159451196184, 49.465271453581131 ] } },
{ "type": "Feature", "properties": { "name": "Umspannwerk Gremberghoven", "operator": "RheinEnergie", "voltage_max_kv": 220, "n_parts": 3, "v_bucket": "220" }, "geometry": { "type": "Point", "coordinates": [ 7.046711527047534, 50.904761167036831 ] } },
{ "type": "Feature", "properties": { "name": "Umspannwerk Lüdershagen", "operator": "E.DIS Netz GmbH", "voltage_max_kv": 220, "n_parts": 2, "v_bucket": "220" }, "geometry": { "type": "Point", "coordinates": [ 13.078601588433111, 54.285175675357763 ] } },
{ "type": "Feature", "properties": { "name": "Umspannwerk Furth im Wald", "operator": "E.ON Netz GmbH", "voltage_max_kv": 110, "n_parts": 1, "v_bucket": "110" }, "geometry": { "type": "Point", "coordinates": [ 12.823899426334812, 49.310969756895041 ] } },
{ "type": "Feature", "properties": { "name": "Umspannwerk Rauberweiherhaus", "operator": "E.ON Netz GmbH", "voltage_max_kv": 110, "n_parts": 1, "v_bucket": "110" }, "geometry": { "type": "Point", "coordinates": [ 12.210822066258405, 49.327568963818777 ] } },
{ "type": "Feature", "properties": { "name": "Umspannwerk Regensburg", "operator": "TenneT TSO GmbH;Bayernwerk", "voltage_max_kv": 220, "n_parts": 1, "v_bucket": "220" }, "geometry": { "type": "Point", "coordinates": [ 12.150406240181363, 49.01275184952781 ] } },
{ "type": "Feature", "properties": { "name": "Umspannwerk Sünching", "operator": "E.ON Netz GmbH", "voltage_max_kv": 110, "n_parts": 1, "v_bucket": "110" }, "geometry": { "type": "Point", "coordinates": [ 12.355316456569509, 48.887576444461089 ] } },
{ "type": "Feature", "properties": { "name": "Inhausen", "operator": "TenneT", "voltage_max_kv": 220, "n_parts": 1, "v_bucket": "220" }, "geometry": { "type": "Point", "coordinates": [ 8.060057028256848, 53.620202620470415 ] } },
{ "type": "Feature", "properties": { "name": "Station Prangenhaus", "operator": "Westnetz", "voltage_max_kv": 110, "n_parts": 1, "v_bucket": "110" }, "geometry": { "type": "Point", "coordinates": [ 7.024384721500319, 51.291308369978672 ] } },
{ "type": "Feature", "properties": { "name": "Station Selm", "operator": "Westnetz", "voltage_max_kv": 110, "n_parts": 1, "v_bucket": "110" }, "geometry": { "type": "Point", "coordinates": [ 7.489473132842978, 51.693253335065712 ] } },
{ "type": "Feature", "properties": { "name": "Station Groß-Reken", "operator": "Westnetz", "voltage_max_kv": 110, "n_parts": 1, "v_bucket": "110" }, "geometry": { "type": "Point", "coordinates": [ 7.050350997196911, 51.821370757460357 ] } },
{ "type": "Feature", "properties": { "name": "Station Gronau", "operator": "", "voltage_max_kv": 380, "n_parts": 3, "v_bucket": "380" }, "geometry": { "type": "Point", "coordinates": [ 7.03475901163646, 52.202909154775313 ] } },
{ "type": "Feature", "properties": { "name": "Hervest-Dorsten", "operator": "Westnetz", "voltage_max_kv": 110, "n_parts": 1, "v_bucket": "110" }, "geometry": { "type": "Point", "coordinates": [ 6.998885293437492, 51.678193416122603 ] } },
{ "type": "Feature", "properties": { "name": "Station Ibbenbüren", "operator": "Amprion;Westnetz", "voltage_max_kv": 380, "n_parts": 1, "v_bucket": "380" }, "geometry": { "type": "Point", "coordinates": [ 7.725695783864677, 52.277186503659266 ] } },
{ "type": "Feature", "properties": { "name": "Landau", "operator": "Pfalzwerke Netz", "voltage_max_kv": 110, "n_parts": 1, "v_bucket": "110" }, "geometry": { "type": "Point", "coordinates": [ 8.123206032264756, 49.209748607949159 ] } },
{ "type": "Feature", "properties": { "name": "", "operator": "N-ergy", "voltage_max_kv": 400, "n_parts": 1, "v_bucket": "380" }, "geometry": { "type": "Point", "coordinates": [ 11.126210049999949, 49.558045549999989 ] } },
{ "type": "Feature", "properties": { "name": "Oldenburg West", "operator": "Avacon", "voltage_max_kv": 110, "n_parts": 1, "v_bucket": "110" }, "geometry": { "type": "Point", "coordinates": [ 8.156184009727479, 53.130906316784831 ] } },
{ "type": "Feature", "properties": { "name": "Umspannwerk Lauchstädt", "operator": "50Hertz Transmission", "voltage_max_kv": 380, "n_parts": 2, "v_bucket": "380" }, "geometry": { "type": "Point", "coordinates": [ 11.893996192478079, 51.404806972472954 ] } },
{ "type": "Feature", "properties": { "name": "Station Mannstaedt", "operator": "Westnetz", "voltage_max_kv": 110, "n_parts": 1, "v_bucket": "110" }, "geometry": { "type": "Point", "coordinates": [ 7.172743786691029, 50.806185329698131 ] } },
{ "type": "Feature", "properties": { "name": "Gleidingen", "operator": "TenneT", "voltage_max_kv": 220, "n_parts": 2, "v_bucket": "220" }, "geometry": { "type": "Point", "coordinates": [ 10.421114621606311, 52.236879188425895 ] } },
{ "type": "Feature", "properties": { "name": "Nettlingen", "operator": "Avacon Netz GmbH", "voltage_max_kv": 110, "n_parts": 1, "v_bucket": "110" }, "geometry": { "type": "Point", "coordinates": [ 10.168020125339487, 52.157679367275747 ] } },
{ "type": "Feature", "properties": { "name": "Umspannwerk Oberwallenstadt", "operator": "Bayernwerk AG", "voltage_max_kv": 110, "n_parts": 1, "v_bucket": "110" }, "geometry": { "type": "Point", "coordinates": [ 11.088212299356353, 50.152046086167196 ] } },
{ "type": "Feature", "properties": { "name": "Umspannwerk Bertikow", "operator": "50Hertz Transmission", "voltage_max_kv": 380, "n_parts": 2, "v_bucket": "380" }, "geometry": { "type": "Point", "coordinates": [ 13.956626369695757, 53.252290154059402 ] } },
{ "type": "Feature", "properties": { "name": "Umspannwerk Görries", "operator": "50Hertz Transmission", "voltage_max_kv": 380, "n_parts": 2, "v_bucket": "380" }, "geometry": { "type": "Point", "coordinates": [ 11.370677670616869, 53.601149633369488 ] } },
{ "type": "Feature", "properties": { "name": "Schaltwerk", "operator": "Hamburger Energienetze", "voltage_max_kv": 380, "n_parts": 4, "v_bucket": "380" }, "geometry": { "type": "Point", "coordinates": [ 10.415769952013219, 53.412811898380212 ] } },
{ "type": "Feature", "properties": { "name": "Umspannwerk Bludenzer Straße", "operator": "Netze BW GmbH", "voltage_max_kv": 110, "n_parts": 2, "v_bucket": "110" }, "geometry": { "type": "Point", "coordinates": [ 9.161930931320065, 48.816027815655779 ] } },
{ "type": "Feature", "properties": { "name": "Kraftwerk Bittenbrunn", "operator": "DB Energie", "voltage_max_kv": 110, "n_parts": 1, "v_bucket": "110" }, "geometry": { "type": "Point", "coordinates": [ 11.144425651017318, 48.735069317024639 ] } },
{ "type": "Feature", "properties": { "name": "", "operator": "", "voltage_max_kv": 110, "n_parts": 1, "v_bucket": "110" }, "geometry": { "type": "Point", "coordinates": [ 11.008213784954243, 49.419362878174468 ] } },
{ "type": "Feature", "properties": { "name": "", "operator": "", "voltage_max_kv": 110, "n_parts": 1, "v_bucket": "110" }, "geometry": { "type": "Point", "coordinates": [ 12.280287775226126, 49.551667422747627 ] } },
{ "type": "Feature", "properties": { "name": "Godenau", "operator": "TenneT;Avacon Netz GmbH", "voltage_max_kv": 220, "n_parts": 1, "v_bucket": "220" }, "geometry": { "type": "Point", "coordinates": [ 9.797336195037721, 52.000839214719981 ] } },
{ "type": "Feature", "properties": { "name": "Umspannwerk Teufelsbruch", "operator": "50Hertz Transmission", "voltage_max_kv": 380, "n_parts": 1, "v_bucket": "380" }, "geometry": { "type": "Point", "coordinates": [ 13.211537102084453, 52.580651667193699 ] } },
{ "type": "Feature", "properties": { "name": "Umspannwerk Mainz-Bretzenheim", "operator": "Kraftwerke Mainz-Wiesbaden AG", "voltage_max_kv": 110, "n_parts": 1, "v_bucket": "110" }, "geometry": { "type": "Point", "coordinates": [ 8.219999915680297, 49.966824713448887 ] } },
{ "type": "Feature", "properties": { "name": "", "operator": "", "voltage_max_kv": 110, "n_parts": 1, "v_bucket": "110" }, "geometry": { "type": "Point", "coordinates": [ 11.774491294811247, 48.395274874802737 ] } },
{ "type": "Feature", "properties": { "name": "Umspannwerk Etting", "operator": "E.ON Netz GmbH", "voltage_max_kv": 110, "n_parts": 1, "v_bucket": "110" }, "geometry": { "type": "Point", "coordinates": [ 11.404254773719732, 48.79420570986283 ] } },
{ "type": "Feature", "properties": { "name": "Kraftwerk Ingolstadt", "operator": "DB Energie", "voltage_max_kv": 110, "n_parts": 1, "v_bucket": "110" }, "geometry": { "type": "Point", "coordinates": [ 11.412034947442665, 48.75120549017366 ] } },
{ "type": "Feature", "properties": { "name": "Graustein", "operator": "50Hertz Transmission", "voltage_max_kv": 380, "n_parts": 2, "v_bucket": "380" }, "geometry": { "type": "Point", "coordinates": [ 14.471579590281802, 51.553612648901499 ] } },
{ "type": "Feature", "properties": { "name": "", "operator": "Stadtwerke München", "voltage_max_kv": 110, "n_parts": 2, "v_bucket": "110" }, "geometry": { "type": "Point", "coordinates": [ 11.593649478850519, 48.188845040813021 ] } },
{ "type": "Feature", "properties": { "name": "Umspannwerk Rottendorf", "operator": "", "voltage_max_kv": 110, "n_parts": 1, "v_bucket": "110" }, "geometry": { "type": "Point", "coordinates": [ 10.014917387273051, 49.791968880102139 ] } },
{ "type": "Feature", "properties": { "name": "", "operator": "", "voltage_max_kv": 110, "n_parts": 1, "v_bucket": "110" }, "geometry": { "type": "Point", "coordinates": [ 6.944862635521866, 50.847909803618165 ] } },
{ "type": "Feature", "properties": { "name": "Umspannwerk Mitte", "operator": "50Hertz Transmission", "voltage_max_kv": 380, "n_parts": 1, "v_bucket": "380" }, "geometry": { "type": "Point", "coordinates": [ 13.368653478230879, 52.503147512500007 ] } },
{ "type": "Feature", "properties": { "name": "Eilendorf", "operator": "Avacon Netz GmbH", "voltage_max_kv": 110, "n_parts": 1, "v_bucket": "110" }, "geometry": { "type": "Point", "coordinates": [ 9.71016362006703, 53.459141986148914 ] } },
{ "type": "Feature", "properties": { "name": "Umspannwerk Kranzberg", "operator": "E.ON Netz GmbH", "voltage_max_kv": 110, "n_parts": 1, "v_bucket": "110" }, "geometry": { "type": "Point", "coordinates": [ 11.597603233355192, 48.414111115708359 ] } },
{ "type": "Feature", "properties": { "name": "Gehrden", "operator": "Avacon Netz GmbH", "voltage_max_kv": 110, "n_parts": 1, "v_bucket": "110" }, "geometry": { "type": "Point", "coordinates": [ 9.596379381167319, 52.28318590690327 ] } },
{ "type": "Feature", "properties": { "name": "Barsinghausen", "operator": "Avacon", "voltage_max_kv": 110, "n_parts": 1, "v_bucket": "110" }, "geometry": { "type": "Point", "coordinates": [ 9.491705523593472, 52.317003809935791 ] } },
{ "type": "Feature", "properties": { "name": "Berne", "operator": "Avacon Netz GmbH", "voltage_max_kv": 110, "n_parts": 1, "v_bucket": "110" }, "geometry": { "type": "Point", "coordinates": [ 8.49241305796661, 53.188716229782202 ] } },
{ "type": "Feature", "properties": { "name": "Hude", "operator": "Avacon", "voltage_max_kv": 110, "n_parts": 1, "v_bucket": "110" }, "geometry": { "type": "Point", "coordinates": [ 8.476087342782398, 53.107256248941574 ] } },
{ "type": "Feature", "properties": { "name": "Umspannwerk Burgstall", "operator": "", "voltage_max_kv": 110, "n_parts": 1, "v_bucket": "110" }, "geometry": { "type": "Point", "coordinates": [ 10.879265435318141, 49.554217537221454 ] } },
{ "type": "Feature", "properties": { "name": "Umspannwerk Oberottmarshausen", "operator": "Lech-Elektrizitätswerke", "voltage_max_kv": 380, "n_parts": 1, "v_bucket": "380" }, "geometry": { "type": "Point", "coordinates": [ 10.840648222456183, 48.237958979461219 ] } },
{ "type": "Feature", "properties": { "name": "Umspannwerk Kernkraftwerk Brunsbüttel", "operator": "50Hertz Transmission", "voltage_max_kv": 380, "n_parts": 3, "v_bucket": "380" }, "geometry": { "type": "Point", "coordinates": [ 9.201704541827244, 53.895618641913963 ] } },
{ "type": "Feature", "properties": { "name": "Umspannwerk Freising/Nord", "operator": "E.ON Netz GmbH, Stadtwerke Freising", "voltage_max_kv": 110, "n_parts": 1, "v_bucket": "110" }, "geometry": { "type": "Point", "coordinates": [ 11.763613897038939, 48.415140572282866 ] } },
{ "type": "Feature", "properties": { "name": "Edemissen", "operator": "Avacon Netz GmbH", "voltage_max_kv": 110, "n_parts": 2, "v_bucket": "110" }, "geometry": { "type": "Point", "coordinates": [ 10.154327948145056, 52.382291353538591 ] } },
{ "type": "Feature", "properties": { "name": "Umspannwerk Metzingen", "operator": "Netze BW GmbH;TransnetBW GmbH", "voltage_max_kv": 380, "n_parts": 1, "v_bucket": "380" }, "geometry": { "type": "Point", "coordinates": [ 9.274313820126906, 48.549862975327329 ] } },
{ "type": "Feature", "properties": { "name": "Station Lirich", "operator": "innogy", "voltage_max_kv": 110, "n_parts": 1, "v_bucket": "110" }, "geometry": { "type": "Point", "coordinates": [ 6.839196603173048, 51.4855673934169 ] } },